StateFIPCode,ZipCode,StateAbbr,City,Longitude,Latitude,Population,AllocationPercentage
08,80005,CO,ARVADA,105.10971900,39.84218900,22613,.0068640000
08,80010,CO,AURORA,104.86461800,39.73678800,27090,.0082230000
08,80011,CO,AURORA,104.81523300,39.73780900,36021,.0109340000
08,80012,CO,AURORA,104.83769300,39.69867200,37711,.0114470000
08,80013,CO,AURORA,104.78456600,39.65745700,45335,.0137610000
08,80014,CO,AURORA,104.83495400,39.66617100,31059,.0094280000
08,80015,CO,AURORA,104.78743800,39.62552000,28161,.0085480000
08,80016,CO,AURORA,104.74173400,39.61871300,4085,.0012400000
08,80017,CO,AURORA,104.78809300,39.69482700,25910,.0078650000
08,80018,CO,AURORA,104.70710200,39.71017900,321,.0000970000
08,80019,CO,AURORA,104.70690600,39.76560800,46,.0000140000
08,80020,CO,BROOMFIELD,105.06090200,39.92451300,31533,.0095720000
08,80021,CO,WESTMINSTER,105.10283700,39.87599600,20461,.0062110000
08,80022,CO,COMMERCE CITY,104.91134900,39.82587500,23205,.0070440000
08,80026,CO,LAFAYETTE,105.09634600,39.99796400,17111,.0051940000
08,80027,CO,LOUISVILLE,105.14555700,39.97894200,12612,.0038280000
08,80030,CO,WESTMINSTER,105.03708600,39.85423800,43235,.0131240000
08,80033,CO,WHEAT RIDGE,105.09619500,39.77403600,23040,.0069940000
08,80045,CO,AURORA,104.83795400,39.74801400,1715,.0005210000
08,80101,CO,AGATE,103.98457500,39.42025600,230,.0000700000
08,80102,CO,BENNETT,104.42728400,39.72539800,3885,.0011790000
08,80103,CO,BYERS,104.20187200,39.69845400,1448,.0004400000
08,80104,CO,CASTLE ROCK,104.86018700,39.39256000,11763,.0035710000
08,80105,CO,DEER TRAIL,104.06800300,39.59312100,634,.0001920000
08,80106,CO,ELBERT,104.57463100,39.09689200,1808,.0005490000
08,80107,CO,ELIZABETH,104.59196100,39.38361800,4973,.0015100000
08,80110,CO,CHERRY HILLS VIL,104.99002200,39.64602700,40226,.0122100000
08,80111,CO,CHERRY HILLS VIL,104.88283200,39.61032700,20230,.0061410000
08,80112,CO,ENGLEWOOD,104.90111500,39.58051000,20210,.0061350000
08,80116,CO,FRANKTOWN,104.72556900,39.37284100,3742,.0011360000
08,80117,CO,KIOWA,104.45226300,39.32397200,680,.0002060000
08,80118,CO,LARKSPUR,104.85458700,39.20107900,1424,.0004320000
08,80120,CO,LITTLETON,105.00440000,39.59942600,24992,.0075860000
08,80121,CO,GREENWOOD VILLAG,104.95728500,39.60583500,17238,.0052330000
08,80122,CO,LITTLETON,104.95567300,39.58141800,31135,.0094510000
08,80123,CO,BOW MAR,105.07766000,39.59685400,59418,.0180360000
08,80124,CO,LITTLETON,104.89720400,39.55061000,5393,.0016370000
08,80125,CO,LITTLETON,105.05609800,39.48446600,3230,.0009800000
08,80126,CO,HIGHLANDS RANCH,104.96375100,39.55134000,13649,.0041430000
08,80127,CO,LITTLETON,105.13281100,39.59196800,23204,.0070430000
08,80132,CO,MONUMENT,104.85416000,39.10072600,7411,.0022500000
08,80133,CO,PALMER LAKE,104.91479500,39.12049800,1237,.0003750000
08,80134,CO,PARKER,104.73490400,39.50546600,19466,.0059090000
08,80135,CO,DECKERS,105.00830500,39.33010900,3257,.0009890000
08,80136,CO,STRASBURG,104.26825800,39.78135900,1197,.0003630000
08,80137,CO,WATKINS,104.58339100,39.76231700,406,.0001230000
08,80202,CO,DENVER,104.99459100,39.74910700,2816,.0008550000
08,80203,CO,DENVER,104.98111100,39.73128500,15775,.0047880000
08,80204,CO,DENVER,105.02585400,39.73402200,27439,.0083290000
08,80205,CO,DENVER,104.96614100,39.75899300,24169,.0073360000
08,80206,CO,DENVER,104.95240000,39.73310900,19145,.0058110000
08,80207,CO,DENVER,104.91771000,39.75842500,20955,.0063610000
08,80209,CO,DENVER,104.96858700,39.70743700,19691,.0059770000
08,80210,CO,DENVER,104.96312400,39.67900300,30868,.0093700000
08,80211,CO,DENVER,105.02037700,39.76651500,34679,.0105270000
08,80212,CO,MOUNTAIN VIEW,105.04697900,39.77239600,17745,.0053860000
08,80214,CO,EDGEWATER,105.06203600,39.74693100,13154,.0039930000
08,80215,CO,LAKEWOOD,105.10232900,39.74403300,27556,.0083650000
08,80216,CO,DENVER,104.96694600,39.78346900,9113,.0027660000
08,80218,CO,DENVER,104.97165200,39.73274700,14916,.0045280000
08,80219,CO,DENVER,105.03413400,39.69562400,48234,.0146410000
08,80220,CO,DENVER,104.91286600,39.73120000,35520,.0107820000
08,80221,CO,FEDERAL HEIGHTS,105.00798500,39.84056200,54069,.0164120000
08,80222,CO,GLENDALE,104.92799200,39.68280300,28373,.0086130000
08,80223,CO,DENVER,105.00279900,39.70023900,16692,.0050670000
08,80224,CO,DENVER,104.91077800,39.68799500,14918,.0045280000
08,80226,CO,LAKEWOOD,105.06670300,39.71218600,13675,.0041510000
08,80227,CO,DENVER,105.08535900,39.66674600,26932,.0081750000
08,80228,CO,LAKEWOOD,105.14300900,39.69689800,25008,.0075910000
08,80229,CO,THORNTON,104.96174900,39.86099800,33512,.0101720000
08,80231,CO,DENVER,104.88432600,39.67932400,35985,.0109230000
08,80232,CO,LAKEWOOD,105.09452400,39.69728200,35087,.0106510000
08,80233,CO,NORTHGLENN,104.95825700,39.90122200,30749,.0093340000
08,80234,CO,NORTHGLENN,105.00447400,39.90547900,13350,.0040520000
08,80235,CO,DENVER,105.07946600,39.64717500,5783,.0017550000
08,80236,CO,DENVER,105.03759500,39.65353500,12979,.0039400000
08,80237,CO,DENVER,104.89866000,39.64314000,14211,.0043140000
08,80239,CO,DENVER,104.82883700,39.78775700,17622,.0053490000
08,80241,CO,NORTHGLENN,104.94180900,39.92779200,10108,.0030680000
08,80249,CO,DENVER,104.75565000,39.77826400,2740,.0008320000
08,80301,CO,BOULDER,105.21426000,40.04973300,18174,.0055170000
08,80302,CO,BOULDER,105.28513100,40.01723500,29384,.0089190000
08,80303,CO,BOULDER,105.23917800,39.99138100,39860,.0120990000
08,80304,CO,BOULDER,105.27707300,40.03748200,21550,.0065410000
08,80401,CO,GOLDEN,105.19152800,39.73054800,32876,.0099790000
08,80403,CO,GOLDEN,105.28251600,39.82321900,13159,.0039940000
08,80421,CO,BAILEY,105.46928200,39.44823300,4448,.0013500000
08,80422,CO,BLACK HAWK,105.50399100,39.80110500,551,.0001670000
08,80423,CO,BOND,106.67627300,39.86911900,149,.0000450000
08,80428,CO,CLARK,106.92148200,40.72678300,455,.0001380000
08,80429,CO,CLIMAX,106.25802700,39.29880400,346,.0001050000
08,80430,CO,COALMONT,106.53213400,40.53825200,88,.0000270000
08,80433,CO,CONIFER,105.31687300,39.51973500,5919,.0017970000
08,80435,CO,KEYSTONE,106.05734500,39.57482700,12881,.0039100000
08,80439,CO,EVERGREEN,105.34024800,39.63740500,19250,.0058430000
08,80440,CO,FAIRPLAY,105.99941600,39.22561700,1030,.0003130000
08,80441,CO,FOXTON,105.24815000,39.37205600,127,.0000390000
08,80446,CO,GRANBY,105.88991600,40.01283400,4839,.0014690000
08,80447,CO,GRAND LAKE,105.86048800,40.22886200,1202,.0003650000
08,80452,CO,IDAHO SPRINGS,105.59826100,39.74019200,5113,.0015520000
08,80455,CO,JAMESTOWN,105.41897100,40.10056000,654,.0001990000
08,80456,CO,JEFFERSON,105.78633000,39.30092600,157,.0000480000
08,80459,CO,KREMMLING,106.39547200,40.06322400,1580,.0004800000
08,80461,CO,LEADVILLE,106.30154500,39.24974200,5544,.0016830000
08,80463,CO,MC COY,106.73090600,39.91337700,61,.0000190000
08,80465,CO,MORRISON,105.17464100,39.61245200,13657,.0041460000
08,80466,CO,NEDERLAND,105.48126500,39.97025900,2621,.0007960000
08,80467,CO,OAK CREEK,106.92962100,40.25673300,1135,.0003450000
08,80468,CO,PARSHALL,106.22549200,40.05376500,345,.0001050000
08,80470,CO,PINE,105.37411600,39.46667000,2827,.0008580000
08,80471,CO,PINECLIFFE,105.35400400,39.94289800,225,.0000680000
08,80474,CO,ROLLINSVILLE,105.47259600,39.91075700,343,.0001040000
08,80479,CO,TOPONAS,106.90817200,40.11960100,697,.0002120000
08,80480,CO,WALDEN,106.27672800,40.70997800,1517,.0004600000
08,80481,CO,WARD,105.50802300,40.07257200,159,.0000480000
08,80487,CO,STEAMBOAT SPRING,106.84570000,40.47412400,9773,.0029670000
08,80501,CO,LONGMONT,105.10095000,40.17792100,47166,.0143170000
08,80503,CO,LONGMONT,105.16243200,40.15588000,16814,.0051040000
08,80504,CO,LONGMONT,104.95044600,40.13061500,3716,.0011280000
08,80510,CO,ALLENSPARK,105.52006400,40.22677500,183,.0000560000
08,80512,CO,BELLVUE,105.26097700,40.62652800,1982,.0006020000
08,80513,CO,BERTHOUD,105.10545900,40.29933300,6886,.0020900000
08,80514,CO,DACONO,104.92970500,40.08361000,2223,.0006750000
08,80515,CO,DRAKE,105.29692500,40.44325700,721,.0002190000
08,80516,CO,ERIE,105.06858300,40.05974600,304,.0000920000
08,80517,CO,ESTES PARK,105.51416300,40.36576100,6428,.0019510000
08,80521,CO,FORT COLLINS,105.10388400,40.58129300,30059,.0091240000
08,80524,CO,FORT COLLINS,105.05811000,40.59865000,21204,.0064360000
08,80525,CO,FORT COLLINS,105.05471500,40.53835400,31263,.0094900000
08,80526,CO,FORT COLLINS,105.10764600,40.54729400,29180,.0088570000
08,80534,CO,JOHNSTOWN,104.92355800,40.33552600,2601,.0007900000
08,80535,CO,LAPORTE,105.14875700,40.63468300,2300,.0006980000
08,80536,CO,VIRGINIA DALE,105.36774500,40.77987800,513,.0001560000
08,80537,CO,LOVELAND,105.09164000,40.38491700,24502,.0074370000
08,80538,CO,LOVELAND,105.08998500,40.42623900,26449,.0080280000
08,80540,CO,LYONS,105.32307100,40.23571500,3696,.0011220000
08,80543,CO,MILLIKEN,104.87613700,40.31065600,2632,.0007990000
08,80545,CO,RED FEATHER LAKE,105.62445500,40.79645100,440,.0001340000
08,80549,CO,WELLINGTON,105.03184400,40.72552500,3309,.0010040000
08,80550,CO,WINDSOR,104.89944200,40.48366300,6724,.0020410000
08,80601,CO,LOCHBUI,104.81027800,39.98055300,20533,.0062330000
08,80610,CO,AULT,104.73562900,40.59377200,2684,.0008150000
08,80611,CO,BRIGGSDALE,104.28707000,40.63919200,259,.0000790000
08,80612,CO,CARR,104.88586500,40.86655100,94,.0000290000
08,80615,CO,EATON,104.71455900,40.52727200,2902,.0008810000
08,80620,CO,EVANS,104.69709500,40.38025500,6262,.0019010000
08,80621,CO,WATTENBURG,104.86563900,40.07887600,12913,.0039200000
08,80622,CO,GALETON,104.59725400,40.51503400,360,.0001090000
08,80624,CO,GILL,104.49999500,40.46958600,130,.0000390000
08,80631,CO,GARDEN CITY,104.70475600,40.41396800,53905,.0163630000
08,80634,CO,GREELEY,104.75411300,40.41094700,14100,.0042800000
08,80640,CO,HENDERSON,104.87183400,39.89830400,1388,.0004210000
08,80642,CO,HUDSON,104.65320800,40.06055500,2369,.0007190000
08,80643,CO,KEENESBURG,104.44636600,40.09584700,1979,.0006010000
08,80644,CO,KERSEY,104.52876800,40.39630500,2843,.0008630000
08,80645,CO,LA SALLE,104.72678400,40.32113800,4455,.0013520000
08,80648,CO,NUNN,104.78501200,40.72648300,505,.0001530000
08,80649,CO,ORCHARD,104.09732500,40.36394600,277,.0000840000
08,80650,CO,PIERCE,104.76376400,40.63591100,1020,.0003100000
08,80651,CO,PLATTEVILLE,104.80277600,40.21312100,2577,.0007820000
08,80652,CO,ROGGEN,104.31574700,40.20744500,150,.0000460000
08,80653,CO,WELDONA,103.96775500,40.36809300,328,.0001000000
08,80654,CO,HOYT,104.05281400,40.20565100,1746,.0005300000
08,80701,CO,FORT MORGAN,103.80311900,40.25408400,13263,.0040260000
08,80720,CO,AKRON,103.22588500,40.18031500,2559,.0007770000
08,80721,CO,AMHERST,102.17056700,40.68238600,86,.0000260000
08,80722,CO,ATWOOD,103.03930100,40.51743200,140,.0000420000
08,80723,CO,BRUSH,103.62788000,40.26025500,5603,.0017010000
08,80726,CO,CROOK,102.84717400,40.87474300,638,.0001940000
08,80727,CO,ECKLEY,102.48277600,40.11377500,242,.0000730000
08,80728,CO,FLEMING,102.86882100,40.63701900,853,.0002590000
08,80729,CO,GROVER,104.23461300,40.87163500,492,.0001490000
08,80731,CO,HAXTUN,102.60517500,40.64058700,1569,.0004760000
08,80733,CO,HILLROSE,103.54181600,40.30718600,516,.0001570000
08,80734,CO,HOLYOKE,102.28254500,40.58254200,2642,.0008020000
08,80735,CO,HALE,102.21156300,39.73314700,393,.0001190000
08,80736,CO,ILIFF,103.09680800,40.76917400,778,.0002360000
08,80737,CO,JULESBURG,102.25750100,40.97083000,1712,.0005200000
08,80740,CO,LINDON,103.31447100,39.83084900,136,.0000410000
08,80741,CO,WILLARD,103.34471000,40.51154800,959,.0002910000
08,80742,CO,NEW RAYMER,103.83898200,40.68507900,310,.0000940000
08,80743,CO,OTIS,102.93921900,40.20298900,1102,.0003350000
08,80744,CO,OVID,102.38739600,40.94586500,563,.0001710000
08,80745,CO,PADRONI,103.35816300,40.95491100,72,.0000220000
08,80747,CO,PEETZ,103.11660600,40.95195000,451,.0001370000
08,80749,CO,SEDGWICK,102.52912200,40.91031700,415,.0001260000
08,80750,CO,SNYDER,103.59713400,40.33065500,134,.0000410000
08,80751,CO,STERLING,103.22118300,40.63062000,13524,.0041050000
08,80754,CO,STONEHAM,103.63868700,40.68699400,141,.0000430000
08,80755,CO,VERNON,102.31934300,39.93312700,318,.0000970000
08,80757,CO,LAST CHANCE,103.57803300,39.93810500,265,.0000800000
08,80758,CO,LAIRD,102.23375100,40.10491700,3396,.0010310000
08,80759,CO,YUMA,102.70717400,40.13006300,3811,.0011570000
08,80801,CO,ANTON,103.43429600,39.68652700,240,.0000730000
08,80802,CO,ARAPAHOE,102.19401000,38.84171600,335,.0001020000
08,80804,CO,ARRIBA,103.27096800,39.30253000,388,.0001180000
08,80805,CO,BETHUNE,102.42814200,39.34477100,543,.0001650000
08,80807,CO,BURLINGTON,102.25828100,39.31064900,3982,.0012090000
08,80808,CO,CALHAN,104.35527400,38.96477300,2955,.0008970000
08,80809,CO,NORTH POLE,104.99368400,38.92131400,2259,.0006860000
08,80810,CO,CHEYENNE WELLS,102.35817300,38.81976200,1364,.0004140000
08,80812,CO,COPE,102.98809800,39.74622700,626,.0001900000
08,80814,CO,DIVIDE,105.19937000,38.95762200,1675,.0005080000
08,80815,CO,FLAGLER,103.06239500,39.31265400,854,.0002590000
08,80816,CO,FLORISSANT,105.22610600,38.82766900,2480,.0007530000
08,80817,CO,FOUNTAIN,104.70046900,38.69956300,11570,.0035120000
08,80818,CO,GENOA,103.46068900,39.33832800,320,.0000970000
08,80820,CO,GUFFEY,105.57835000,38.81458400,300,.0000910000
08,80821,CO,HUGO,103.49897100,39.08431800,1064,.0003230000
08,80822,CO,JOES,102.61513400,39.67277100,315,.0000960000
08,80823,CO,KARVAL,103.50061300,38.71194000,339,.0001030000
08,80824,CO,KIRK,102.47755400,39.61707200,479,.0001450000
08,80825,CO,KIT CARSON,102.81984200,38.80398400,698,.0002120000
08,80827,CO,LAKE GEORGE,105.43465400,39.03423300,587,.0001780000
08,80828,CO,LIMON,103.68557200,39.27126000,2244,.0006810000
08,80829,CO,MANITOU SPRINGS,104.90583900,38.85499400,4989,.0015140000
08,80830,CO,MATHESON,103.91316500,39.13204400,439,.0001330000
08,80831,CO,PEYTON,104.54722000,38.95409700,3707,.0011250000
08,80832,CO,RAMAH,104.12473300,39.07357100,561,.0001700000
08,80833,CO,RUSH,104.02406500,38.76424800,408,.0001240000
08,80834,CO,SEIBERT,102.88218400,39.31832900,364,.0001100000
08,80835,CO,SIMLA,104.08623600,39.14645700,580,.0001760000
08,80836,CO,STRATTON,102.59792800,39.30873300,1102,.0003350000
08,80840,CO,UNITED STATES AI,104.86013900,38.99044800,9062,.0027510000
08,80861,CO,VONA,102.73928700,39.32356400,295,.0000900000
08,80863,CO,WOODLAND PARK,105.06229200,38.99692900,8272,.0025110000
08,80864,CO,YODER,104.21835300,38.77525200,511,.0001550000
08,80903,CO,COLORADO SPRINGS,104.81446600,38.83883200,13972,.0042410000
08,80904,CO,COLORADO SPRINGS,104.85951300,38.85331800,17366,.0052710000
08,80905,CO,COLORADO SPRINGS,104.83699700,38.83769200,3435,.0010430000
08,80906,CO,COLORADO SPRINGS,104.81989300,38.79016400,38856,.0117950000
08,80907,CO,COLORADO SPRINGS,104.81703400,38.87600100,25123,.0076260000
08,80908,CO,COLORADO SPRINGS,104.69333100,39.02374500,6803,.0020650000
08,80909,CO,COLORADO SPRINGS,104.77348300,38.85203800,34887,.0105900000
08,80910,CO,COLORADO SPRINGS,104.77029900,38.81516400,24867,.0075480000
08,80911,CO,COLORADO SPRINGS,104.72232200,38.74566500,22116,.0067130000
08,80913,CO,FORT CARSON,104.78221800,38.74196700,11309,.0034330000
08,80914,CO,CHEYENNE MTN AFB,104.71905200,38.78424100,0,.0000000000
08,80915,CO,COLORADO SPRINGS,104.71342200,38.85584500,18209,.0055270000
08,80916,CO,COLORADO SPRINGS,104.74034000,38.80761900,26402,.0080140000
08,80917,CO,COLORADO SPRINGS,104.73990400,38.88602700,27664,.0083970000
08,80918,CO,COLORADO SPRINGS,104.77344400,38.91292400,36410,.0110520000
08,80919,CO,COLORADO SPRINGS,104.84642000,38.92679500,17468,.0053020000
08,80920,CO,COLORADO SPRINGS,104.76695100,38.94973200,16907,.0051320000
08,80921,CO,COLORADO SPRINGS,104.81404200,39.04867400,3539,.0010740000
08,80922,CO,COLORADO SPRINGS,104.69816100,38.90503000,1836,.0005570000
08,80925,CO,COLORADO SPRINGS,104.66008700,38.73132900,2550,.0007740000
08,80926,CO,COLORADO SPRINGS,104.85051000,38.69807300,1040,.0003160000
08,80928,CO,COLORADO SPRINGS,104.45704300,38.62326100,273,.0000830000
08,80929,CO,COLORADO SPRINGS,104.60785700,38.79683700,197,.0000600000
08,80930,CO,COLORADO SPRINGS,104.52692400,38.82892600,484,.0001470000
08,81001,CO,PUEBLO,104.58482800,38.28787600,28837,.0087530000
08,81003,CO,PUEBLO,104.62337000,38.28427700,13461,.0040860000
08,81004,CO,PUEBLO,104.62782900,38.24406300,25748,.0078160000
08,81005,CO,PUEBLO,104.66003100,38.23515700,26273,.0079750000
08,81006,CO,PUEBLO,104.53183400,38.24465000,12277,.0037270000
08,81007,CO,PUEBLO WEST,104.74326400,38.31997500,4592,.0013940000
08,81008,CO,PUEBLO,104.62843300,38.31325100,5953,.0018070000
08,81020,CO,AGUILAR,104.67692600,37.39330400,928,.0002820000
08,81021,CO,ARLINGTON,103.36974100,38.40677000,28,.0000080000
08,81022,CO,NORTH AVONDALE,104.35968600,38.21160300,1483,.0004500000
08,81023,CO,BEULAH,104.97245000,38.08371200,867,.0002630000
08,81025,CO,BOONE,104.25851000,38.26461400,976,.0002960000
08,81026,CO,BRANDON,102.78190600,38.48513300,1094,.0003320000
08,81027,CO,BRANSON,103.87411500,37.05177500,140,.0000420000
08,81028,CO,BRISTOL,102.34264200,38.13318400,256,.0000780000
08,81029,CO,CAMPO,102.54642300,37.11954700,487,.0001480000
08,81036,CO,CHIVINGTON,102.50536000,38.44414100,123,.0000370000
08,81039,CO,FOWLER,104.02990800,38.12307100,1877,.0005700000
08,81040,CO,FARISITA,105.23739700,37.76375300,428,.0001300000
08,81041,CO,GRANADA,102.32712000,38.05448500,741,.0002250000
08,81043,CO,HARTMAN,102.18660900,38.14529100,256,.0000780000
08,81044,CO,CADDOA,102.93314500,38.10734700,263,.0000800000
08,81045,CO,HASWELL,103.15054300,38.44743100,109,.0000330000
08,81047,CO,HOLLY,102.14146600,38.02050000,1480,.0004490000
08,81049,CO,VILLEGREEN,103.35834800,37.33118900,389,.0001180000
08,81050,CO,TIMPAS,103.54906800,37.99155200,11742,.0035640000
08,81052,CO,LAMAR,102.61919500,38.08413600,9903,.0030060000
08,81054,CO,DEORA,103.20849200,38.06551400,4217,.0012800000
08,81055,CO,CUCHARA,105.01299400,37.49829200,1234,.0003750000
08,81057,CO,MC CLAVE,102.81693400,38.15048400,568,.0001720000
08,81058,CO,MANZANOLA,103.87660200,38.11086100,961,.0002920000
08,81059,CO,DELHI,104.13074000,37.47853300,237,.0000720000
08,81062,CO,OLNEY SPRINGS,103.94103300,38.20187700,706,.0002140000
08,81063,CO,ORDWAY,103.80027700,38.20954600,2692,.0008170000
08,81064,CO,UTLEYVILLE,102.89310600,37.35588500,383,.0001160000
08,81067,CO,ROCKY FORD,103.72514300,38.04901600,5946,.0018050000
08,81069,CO,RYE,104.88625700,37.93714500,2369,.0007190000
08,81071,CO,TOWNER,102.29536700,38.46217200,162,.0000490000
08,81073,CO,SPRINGFIELD,102.61732200,37.40672700,1992,.0006050000
08,81076,CO,SUGAR CITY,103.65555700,38.24436800,400,.0001210000
08,81080,CO,81080,102.10826800,38.43839100,172,.0000520000
08,81081,CO,TRINCHERA,104.11835400,37.07566200,21,.0000060000
08,81082,CO,JANSEN,104.50071500,37.17547500,10978,.0033320000
08,81084,CO,LYCAN,102.32012800,37.57476000,183,.0000560000
08,81087,CO,VILAS,102.44374000,37.37304300,145,.0000440000
08,81089,CO,FARISTA,104.80430100,37.63815900,4347,.0013200000
08,81090,CO,WALSH,102.25371600,37.35205700,1366,.0004150000
08,81091,CO,WESTON,104.82474900,37.17021100,1094,.0003320000
08,81092,CO,WILEY,102.71473400,38.15897800,711,.0002160000
08,81101,CO,ALAMOSA,105.87860200,37.47027400,12580,.0038190000
08,81120,CO,ANTONITO,106.03794600,37.08547300,2246,.0006820000
08,81121,CO,ARBOLES,107.39074900,37.10163300,587,.0001780000
08,81122,CO,BAYFIELD,107.61372800,37.26032800,3866,.0011740000
08,81123,CO,BLANCA,105.51778400,37.43170200,429,.0001300000
08,81125,CO,CENTER,106.09062800,37.73429500,4419,.0013410000
08,81130,CO,CREEDE,106.92767900,37.81636700,558,.0001690000
08,81132,CO,LA GARITA,106.35050200,37.67134600,2791,.0008470000
08,81133,CO,FORT GARLAND,105.40487900,37.42697800,725,.0002200000
08,81136,CO,HOOPER,105.87119300,37.72320300,265,.0000800000
08,81137,CO,IGNACIO,107.63946500,37.12641200,3494,.0010610000
08,81140,CO,LA JARA,106.00542700,37.29072600,2274,.0006900000
08,81143,CO,MOFFAT,105.84105100,38.04519500,737,.0002240000
08,81144,CO,MONTE VISTA,106.14083300,37.57309500,6041,.0018340000
08,81146,CO,MOSCA,105.80686600,37.63579600,399,.0001210000
08,81147,CO,PAGOSA SPRINGS,107.03849700,37.25234500,4758,.0014440000
08,81149,CO,SAGUACHE,106.18759200,38.09775000,895,.0002720000
08,81150,CO,SAN ACACIO,105.43994900,37.20134700,1146,.0003480000
08,81151,CO,SANFORD,105.92858800,37.20872400,3037,.0009220000
08,81152,CO,MESITA,105.57562500,37.05057000,252,.0000760000
08,81153,CO,SAN PABLO,105.34619600,37.13487200,638,.0001940000
08,81154,CO,SOUTH FORK,106.61245100,37.67248000,722,.0002190000
08,81155,CO,VILLA GROVE,106.11018300,38.29520000,53,.0000160000
08,81201,CO,SALIDA,105.99781800,38.52590900,7658,.0023250000
08,81210,CO,ALMONT,106.62709900,38.64997000,150,.0000460000
08,81211,CO,BUENA VISTA,106.14712100,38.83800300,5220,.0015850000
08,81212,CO,CANON CITY,105.21782900,38.44507400,23049,.0069960000
08,81220,CO,CIMARRON,107.48236600,38.38763300,84,.0000250000
08,81224,CO,CRESTED BUTTE,106.96189900,38.86908100,1750,.0005310000
08,81226,CO,FLORENCE,105.12323300,38.38501600,4461,.0013540000
08,81228,CO,GRANITE,106.31141700,39.09529400,79,.0000240000
08,81230,CO,GUNNISON,106.93101300,38.55105600,7814,.0023720000
08,81233,CO,HOWARD,105.74712400,38.38851900,485,.0001470000
08,81235,CO,LAKE CITY,107.30203700,37.98676900,467,.0001420000
08,81236,CO,NATHROP,106.11657600,38.71034300,440,.0001340000
08,81239,CO,PARLIN,106.67799500,38.50876200,67,.0000200000
08,81240,CO,PENROSE,105.01132500,38.43362200,3166,.0009610000
08,81241,CO,PITKIN,106.51677400,38.60854200,53,.0000160000
08,81243,CO,POWDERHORN,107.10844900,38.28216500,11,.0000030000
08,81250,CO,81250,105.53182500,38.39555600,467,.0001420000
08,81251,CO,TWIN LAKES,106.43507900,39.09023100,49,.0000150000
08,81252,CO,WESTCLIFFE,105.43315400,38.12302300,1569,.0004760000
08,81253,CO,WETMORE,105.10644100,38.18985700,357,.0001080000
08,81301,CO,DURANGO,107.86168400,37.28738800,23506,.0071350000
08,81320,CO,CAHONE,108.57944200,37.69163000,384,.0001170000
08,81321,CO,CORTEZ,108.58372600,37.35494900,11937,.0036230000
08,81323,CO,DOLORES,108.47174800,37.46657100,1770,.0005370000
08,81324,CO,DOVE CREEK,108.91814700,37.76319900,1120,.0003400000
08,81325,CO,EGNAR,108.92988900,37.93444800,119,.0000360000
08,81326,CO,HESPERUS,108.12191700,37.16536800,1303,.0003960000
08,81327,CO,LEWIS,108.61891000,37.47101000,1455,.0004420000
08,81328,CO,MANCOS,108.29824200,37.34713300,2141,.0006500000
08,81331,CO,PLEASANT VIEW,108.80948700,37.58876300,223,.0000680000
08,81334,CO,TOWAOC,108.71999300,37.20840800,1135,.0003450000
08,81335,CO,YELLOW JACKET,108.78516700,37.49952600,126,.0000380000
08,81401,CO,MONTROSE,107.87518200,38.46783000,17834,.0054130000
08,81410,CO,AUSTIN,107.97384000,38.79754400,1258,.0003820000
08,81411,CO,BEDROCK,108.95322400,38.38435200,191,.0000580000
08,81413,CO,CEDAREDGE,107.92678600,38.91187800,3254,.0009880000
08,81415,CO,CRAWFORD,107.61486400,38.69408000,882,.0002680000
08,81416,CO,DELTA,108.06042100,38.73489100,8644,.0026240000
08,81418,CO,ECKERT,107.96245200,38.84498200,1211,.0003680000
08,81419,CO,HOTCHKISS,107.74717300,38.81241700,2735,.0008300000
08,81422,CO,NATURITA,108.57283600,38.22255900,554,.0001680000
08,81423,CO,NORWOOD,108.28447200,38.11040600,1079,.0003280000
08,81424,CO,NUCLA,108.54764400,38.26821900,1135,.0003450000
08,81425,CO,OLATHE,107.99211800,38.59757500,4246,.0012890000
08,81426,CO,OPHIR,107.85196100,37.85619700,138,.0000420000
08,81427,CO,OURAY,107.67261000,38.02576000,686,.0002080000
08,81428,CO,PAONIA,107.59848300,38.86497800,3314,.0010060000
08,81430,CO,PLACERVILLE,108.02477500,38.00875900,467,.0001420000
08,81431,CO,REDVALE,108.38953600,38.18645200,409,.0001240000
08,81432,CO,RIDGWAY,107.75334100,38.13807400,1299,.0003940000
08,81433,CO,SILVERTON,107.66668600,37.80899500,745,.0002260000
08,81434,CO,SOMERSET,107.37814500,38.94680100,180,.0000550000
08,81435,CO,TELLURIDE,107.82137100,37.94002800,1850,.0005620000
08,81501,CO,GRAND JUNCTION,108.54569200,39.07832600,19665,.0059690000
08,81503,CO,GRAND JUNCTION,108.57560900,39.05677700,20467,.0062130000
08,81504,CO,FRUITVALE,108.48909400,39.08313600,16754,.0050860000
08,81505,CO,GRAND JUNCTION,108.59683400,39.10709700,4877,.0014800000
08,81506,CO,GRAND JUNCTION,108.54911000,39.10320900,7471,.0022680000
08,81520,CO,CLIFTON,108.44962800,39.08050000,8408,.0025520000
08,81521,CO,FRUITA,108.72175700,39.16365600,6230,.0018910000
08,81522,CO,GATEWAY,108.79134400,38.91513600,752,.0002280000
08,81524,CO,LOMA,108.81490200,39.22789600,1067,.0003240000
08,81525,CO,MACK,108.92959700,39.25536700,176,.0000530000
08,81526,CO,PALISADE,108.36797700,39.10317800,4366,.0013250000
08,81527,CO,WHITEWATER,108.39904200,38.97442200,664,.0002020000
08,81601,CO,GLENWOOD SPRINGS,107.32518800,39.52960700,9606,.0029160000
08,81610,CO,DINOSAUR,108.96518400,40.25660900,498,.0001510000
08,81611,CO,ASPEN,106.82359300,39.19513900,7431,.0022560000
08,81621,CO,BASALT,106.99875200,39.35346600,3248,.0009860000
08,81623,CO,MARBLE,107.17101200,39.38543100,9406,.0028550000
08,81624,CO,COLLBRAN,107.92494500,39.24526700,1043,.0003170000
08,81625,CO,CRAIG,107.56145800,40.52235100,10242,.0031090000
08,81630,CO,DE BEQUE,108.23040500,39.31176400,464,.0001410000
08,81631,CO,EAGLE,106.75884000,39.63413800,3368,.0010220000
08,81633,CO,ELK SPRINGS,108.41972900,40.41458800,10,.0000030000
08,81635,CO,BATTLEMENT MESA,108.03803800,39.44072900,2602,.0007900000
08,81637,CO,GYPSUM,106.96708300,39.66184800,2593,.0007870000
08,81638,CO,HAMILTON,107.58408900,40.32504000,191,.0000580000
08,81639,CO,HAYDEN,107.25705500,40.49448700,2028,.0006160000
08,81640,CO,MAYBELL,108.27226400,40.65064900,351,.0001070000
08,81641,CO,MEEKER,107.89249800,40.03872600,3094,.0009390000
08,81642,CO,MEREDITH,106.67823000,39.33534800,76,.0000230000
08,81643,CO,MESA,108.10440100,39.16116100,741,.0002250000
08,81647,CO,NEW CASTLE,107.54275800,39.57092200,2719,.0008250000
08,81648,CO,RANGELY,108.79914800,40.08284400,2740,.0008320000
08,81650,CO,RIFLE,107.78980400,39.54907300,7146,.0021690000
08,81652,CO,SILT,107.65741100,39.54146400,2430,.0007380000
08,81653,CO,SLATER,107.49717800,40.94798500,65,.0000200000
08,81654,CO,SNOWMASS,106.95083900,39.25005900,2627,.0007970000
08,81657,CO,VAIL,106.46345400,39.62379300,11449,.0034750000
09,06001,CT,AVON,72.86532300,41.79049800,13988,.0042550000
09,06002,CT,BLOOMFIELD,72.72493000,41.83164700,19524,.0059400000
09,06010,CT,BRISTOL,72.93019300,41.68229300,60670,.0184570000
09,06013,CT,BURLINGTON,72.94438600,41.75729600,7017,.0021350000
09,06016,CT,WINDSORVILLE,72.54366700,41.91140500,5067,.0015410000
09,06018,CT,CANAAN,73.32317700,42.02482100,2948,.0008970000
09,06019,CT,CANTON,72.89873100,41.83840100,4125,.0012550000
09,06020,CT,CANTON CENTER,72.90584700,41.87158600,192,.0000580000
09,06021,CT,COLEBROOK,73.10406900,42.02821700,203,.0000620000
09,06022,CT,COLLINSVILLE,72.92827000,41.85131900,4630,.0014090000
09,06023,CT,EAST BERLIN,72.71900700,41.61277000,1021,.0003110000
09,06024,CT,EAST CANAAN,73.27846200,42.01168600,519,.0001580000
09,06026,CT,EAST GRANBY,72.74588900,41.93221500,4301,.0013080000
09,06027,CT,EAST HARTLAND,72.92421300,42.00161700,1833,.0005580000
09,06029,CT,ELLINGTON,72.46259900,41.91141700,9070,.0027590000
09,06031,CT,FALLS VILLAGE,73.35165900,41.95784000,1192,.0003630000
09,06032,CT,FARMINGTON,72.84147600,41.72839000,14953,.0045490000
09,06033,CT,GLASTONBURY,72.57270500,41.70732900,24287,.0073890000
09,06035,CT,GRANBY,72.79937700,41.96022700,6939,.0021110000
09,06037,CT,BERLIN,72.77048200,41.62082600,15755,.0047930000
09,06039,CT,LAKEVILLE,73.43766000,41.95163100,2086,.0006350000
09,06040,CT,MANCHESTER,72.52444000,41.77773200,51618,.0157030000
09,06043,CT,BOLTON,72.43958000,41.76888800,4569,.0013900000
09,06051,CT,NEW BRITAIN,72.77220800,41.66668300,28705,.0087330000
09,06052,CT,NEW BRITAIN,72.79885800,41.65879200,8798,.0026770000
09,06053,CT,NEW BRITAIN,72.79083500,41.68666700,37995,.0115590000
09,06057,CT,NEW HARTFORD,73.01036900,41.84679700,4521,.0013750000
09,06058,CT,NORFOLK,73.19919700,41.98538600,2060,.0006270000
09,06059,CT,NORTH CANTON,72.90414000,41.92351600,783,.0002380000
09,06060,CT,NORTH GRANBY,72.84093800,42.02192500,1455,.0004430000
09,06062,CT,PLAINVILLE,72.86437300,41.67265300,17320,.0052690000
09,06063,CT,PLEASANT VALLEY,72.98267500,41.92487300,838,.0002550000
09,06065,CT,RIVERTON,73.02546900,41.96139500,155,.0000470000
09,06066,CT,VERNON ROCKVILLE,72.46485500,41.85007300,31966,.0097250000
09,06067,CT,ROCKY HILL,72.66319700,41.65829500,16638,.0050620000
09,06068,CT,SALISBURY,73.42149200,42.00145200,1686,.0005130000
09,06069,CT,SHARON,73.45775800,41.87144600,2794,.0008500000
09,06070,CT,SIMSBURY,72.82126700,41.87371200,14589,.0044380000
09,06071,CT,SOMERS,72.45826600,41.99781300,9685,.0029460000
09,06073,CT,SOUTH GLASTONBUR,72.55430800,41.66068200,3614,.0010990000
09,06074,CT,SOUTH WINDSOR,72.55758500,41.83408100,22090,.0067200000
09,06076,CT,STAFFORD SPRINGS,72.28985700,41.96612700,12392,.0037700000
09,06078,CT,SUFFIELD,72.64199700,41.99002900,8518,.0025910000
09,06081,CT,TARIFFVILLE,72.76778600,41.90771500,1477,.0004490000
09,06082,CT,ENFIELD,72.56521800,41.98901600,45558,.0138600000
09,06084,CT,TOLLAND,72.37178900,41.86964700,10973,.0033380000
09,06085,CT,UNIONVILLE,72.88740600,41.74771100,5604,.0017050000
09,06088,CT,EAST WINDSOR,72.60294500,41.90990000,4988,.0015170000
09,06089,CT,WEATOGUE,72.82525400,41.83715200,2308,.0007020000
09,06090,CT,WEST GRANBY,72.85549600,41.96550900,948,.0002880000
09,06092,CT,WEST SIMSBURY,72.85774900,41.87179700,3691,.0011230000
09,06093,CT,WEST SUFFIELD,72.73623200,42.01146400,2912,.0008860000
09,06095,CT,WINDSOR,72.66389300,41.85612200,27815,.0084620000
09,06096,CT,WINDSOR LOCKS,72.64576200,41.92607800,12358,.0037600000
09,06098,CT,WINSTED,73.06634100,41.92521400,14584,.0044370000
09,06103,CT,HARTFORD,72.67596600,41.76719600,1202,.0003660000
09,06105,CT,HARTFORD,72.70100600,41.76911600,20887,.0063540000
09,06106,CT,HARTFORD,72.69473400,41.74984100,47841,.0145540000
09,06107,CT,W HARTFORD,72.75322000,41.75555300,18466,.0056180000
09,06108,CT,EAST HARTFORD,72.61801400,41.78029100,23698,.0072090000
09,06109,CT,WETHERSFIELD,72.67630800,41.70133200,25583,.0077830000
09,06110,CT,W HARTFORD,72.73369100,41.73256600,11817,.0035950000
09,06111,CT,MAPLE HILL,72.72974700,41.68640200,29192,.0088810000
09,06112,CT,HARTFORD,72.69641000,41.79053000,29714,.0090400000
09,06114,CT,HARTFORD,72.68072600,41.74029300,23302,.0070890000
09,06117,CT,W HARTFORD,72.74568900,41.79002100,14774,.0044950000
09,06118,CT,EAST HARTFORD,72.61026500,41.74721100,26754,.0081390000
09,06119,CT,W HARTFORD,72.72679900,41.76276500,15066,.0045830000
09,06120,CT,HARTFORD,72.67580700,41.78596000,16739,.0050920000
09,06226,CT,WILLIMANTIC,72.21339600,41.71491800,16023,.0048740000
09,06231,CT,AMSTON,72.36460100,41.62896900,2887,.0008780000
09,06232,CT,ANDOVER,72.37671900,41.73321500,2546,.0007750000
09,06234,CT,BROOKLYN,71.95412900,41.78074700,4835,.0014710000
09,06235,CT,CHAPLIN,72.13719700,41.80258400,902,.0002740000
09,06237,CT,COLUMBIA,72.30717000,41.69727400,4510,.0013720000
09,06238,CT,COVENTRY,72.33324900,41.78219500,10776,.0032780000
09,06239,CT,DANIELSON,71.88070300,41.79824600,12754,.0038800000
09,06241,CT,DAYVILLE,71.86834200,41.85404500,5860,.0017830000
09,06242,CT,EASTFORD,72.08945100,41.87710400,76,.0000230000
09,06243,CT,EAST KILLINGLY,71.79853400,41.84875600,25,.0000080000
09,06247,CT,HAMPTON,72.06797900,41.76166800,2139,.0006510000
09,06248,CT,HEBRON,72.39855300,41.68416100,4192,.0012750000
09,06249,CT,LEBANON,72.24403500,41.63298800,6043,.0018380000
09,06250,CT,MANSFIELD CENTER,72.20111200,41.76981400,4306,.0013100000
09,06254,CT,NORTH FRANKLIN,72.14254400,41.61614100,1654,.0005030000
09,06255,CT,NORTH GROSVENORD,71.90273400,41.98787800,5641,.0017160000
09,06256,CT,NORTH WINDHAM,72.16010600,41.74514400,3825,.0011640000
09,06259,CT,POMFRET CENTER,71.98201000,41.86968300,3325,.0010120000
09,06260,CT,PUTNAM,71.89680400,41.91853000,9031,.0027470000
09,06262,CT,QUINEBAUG,71.93913700,42.02174700,72,.0000220000
09,06264,CT,SCOTLAND,72.07826300,41.68984900,102,.0000310000
09,06266,CT,SOUTH WINDHAM,72.16811200,41.66772400,372,.0001130000
09,06268,CT,STORRS MANSFIELD,72.25717200,41.80536400,16117,.0049030000
09,06277,CT,THOMPSON,71.83758700,41.98028500,2960,.0009000000
09,06278,CT,WARRENVILLE,72.15873000,41.86434000,2720,.0008270000
09,06279,CT,WEST WILLINGTON,72.27277400,41.87399600,5981,.0018200000
09,06280,CT,WINDHAM,72.15261000,41.70265200,3337,.0010150000
09,06281,CT,WOODSTOCK,72.00402700,41.96021800,5698,.0017330000
09,06282,CT,WOODSTOCK VALLEY,72.09366000,41.91529600,1099,.0003340000
09,06320,CT,NEW LONDON,72.10624500,41.35071800,28367,.0086300000
09,06330,CT,BALTIC,72.07749900,41.62629000,3188,.0009700000
09,06331,CT,CANTERBURY,72.00098500,41.68440300,4345,.0013220000
09,06333,CT,EAST LYME,72.23298700,41.36680600,6095,.0018540000
09,06334,CT,BOZRAH,72.17107800,41.54651500,2297,.0006990000
09,06335,CT,GALES FERRY,72.06719000,41.42852000,6994,.0021280000
09,06336,CT,GILMAN,72.12662300,41.58117000,156,.0000470000
09,06339,CT,LEDYARD,71.99562600,41.44014000,7602,.0023130000
09,06340,CT,GROTON,72.05794700,41.35717100,32435,.0098670000
09,06349,CT,GROTON,72.09005800,41.39764800,5398,.0016420000
09,06351,CT,JEWETT CITY,71.98075900,41.60518200,11674,.0035510000
09,06353,CT,MONTVILLE,72.12647600,41.44533100,258,.0000780000
09,06354,CT,MOOSUP,71.88496200,41.72103100,7048,.0021440000
09,06355,CT,MYSTIC,71.97736400,41.36162600,11183,.0034020000
09,06357,CT,NIANTIC,72.21081900,41.32530000,9245,.0028120000
09,06359,CT,NORTH STONINGTON,71.87270100,41.45311300,4882,.0014850000
09,06360,CT,NORWICH,72.08494000,41.53705500,30145,.0091710000
09,06365,CT,PRESTON,72.02107900,41.52206100,11191,.0034050000
09,06370,CT,OAKDALE,72.19035800,41.47057300,6505,.0019790000
09,06371,CT,OLD LYME,72.30856200,41.33474500,8484,.0025810000
09,06374,CT,PLAINFIELD,71.92196800,41.67753000,6533,.0019870000
09,06375,CT,QUAKER HILL,72.11722000,41.40324000,2886,.0008780000
09,06377,CT,STERLING,71.81958800,41.71562900,2324,.0007070000
09,06378,CT,STONINGTON,71.91554400,41.36643700,5282,.0016070000
09,06379,CT,PAWCATUCK,71.84776100,41.37347500,8082,.0024590000
09,06380,CT,TAFTVILLE,72.05287700,41.56526300,2538,.0007720000
09,06382,CT,UNCASVILLE,72.11255600,41.46216800,9909,.0030140000
09,06384,CT,VOLUNTOWN,71.85500200,41.58305300,3167,.0009630000
09,06385,CT,WATERFORD,72.14581600,41.34685300,15217,.0046290000
09,06401,CT,ANSONIA,73.07421100,41.34271200,18430,.0056070000
09,06403,CT,BEACON FALLS,73.05965600,41.43691700,5083,.0015460000
09,06405,CT,BRANFORD,72.81064300,41.27999100,27726,.0084350000
09,06409,CT,CENTERBROOK,72.41731000,41.34743000,483,.0001470000
09,06410,CT,CHESHIRE,72.90812700,41.50547300,25684,.0078140000
09,06412,CT,CHESTER,72.46429300,41.40490300,3417,.0010400000
09,06413,CT,CLINTON,72.52797300,41.29117000,12772,.0038850000
09,06415,CT,COLCHESTER,72.34412300,41.56619800,10978,.0033400000
09,06416,CT,CROMWELL,72.66631700,41.61049000,12286,.0037380000
09,06417,CT,DEEP RIVER,72.44856800,41.37647800,4332,.0013180000
09,06418,CT,DERBY,73.08003500,41.32285800,12199,.0037110000
09,06419,CT,KILLINGWORTH,72.57119200,41.36962200,4809,.0014630000
09,06420,CT,SALEM,72.27245400,41.49662700,4041,.0012290000
09,06422,CT,DURHAM,72.68752000,41.46495100,5737,.0017450000
09,06423,CT,EAST HADDAM,72.40587600,41.46957500,3451,.0010500000
09,06424,CT,EAST HAMPTON,72.50934500,41.57605800,10309,.0031360000
09,06426,CT,ESSEX,72.39650400,41.35494400,2710,.0008240000
09,06430,CT,FAIRFIELD,73.25710900,41.16644200,40889,.0124390000
09,06432,CT,FAIRFIELD,73.23540800,41.20165100,8634,.0026270000
09,06437,CT,GUILFORD,72.69679000,41.31537000,19717,.0059980000
09,06438,CT,HADDAM,72.50498800,41.46271800,2245,.0006830000
09,06441,CT,HIGGANUM,72.57514300,41.46824600,4248,.0012920000
09,06442,CT,IVORYTON,72.44038700,41.34210100,2748,.0008360000
09,06443,CT,MADISON,72.61525400,41.30901900,15488,.0047120000
09,06447,CT,MARLBOROUGH,72.46087100,41.64122600,5535,.0016840000
09,06450,CT,MERIDEN,72.79973400,41.53339600,59441,.0180830000
09,06455,CT,MIDDLEFIELD,72.71862400,41.51678900,2515,.0007650000
09,06457,CT,MIDDLETOWN,72.66522500,41.55689500,42846,.0130350000
09,06460,CT,MILFORD,73.05494800,41.21746600,49940,.0151930000
09,06468,CT,MONROE,73.22433300,41.33117100,16845,.0051250000
09,06469,CT,MOODUS,72.44187900,41.50780700,2634,.0008010000
09,06470,CT,NEWTOWN,73.31674400,41.39309500,12787,.0038900000
09,06471,CT,NORTH BRANFORD,72.77603400,41.32798500,6767,.0020590000
09,06472,CT,NORTHFORD,72.78090900,41.39621900,6229,.0018950000
09,06473,CT,NORTH HAVEN,72.85852000,41.38215600,22481,.0068390000
09,06475,CT,OLD SAYBROOK,72.38502200,41.29129700,9552,.0029060000
09,06477,CT,ORANGE,73.02872500,41.28152700,12828,.0039030000
09,06478,CT,OXFORD,73.12961000,41.42023700,9286,.0028250000
09,06479,CT,PLANTSVILLE,72.89903100,41.57974700,10024,.0030490000
09,06480,CT,PORTLAND,72.61279700,41.58522300,8673,.0026380000
09,06481,CT,ROCKFALL,72.69967400,41.53409400,1330,.0004050000
09,06482,CT,SANDY HOOK,73.24852200,41.40870600,8046,.0024480000
09,06483,CT,SEYMOUR,73.08174500,41.38620900,13660,.0041560000
09,06484,CT,SHELTON,73.12943900,41.30468900,35447,.0107840000
09,06488,CT,SOUTHBURY,73.22407700,41.47669500,15818,.0048120000
09,06489,CT,SOUTHINGTON,72.87268100,41.60522100,28567,.0086910000
09,06490,CT,SOUTHPORT,73.29020500,41.14527000,3701,.0011260000
09,06492,CT,WALLINGFORD,72.82217900,41.45999700,40838,.0124240000
09,06497,CT,STRATFORD,73.13559400,41.20440000,49495,.0150570000
09,06498,CT,WESTBROOK,72.45631300,41.29266200,5377,.0016360000
09,06510,CT,NEW HAVEN,72.92706000,41.30870100,4448,.0013530000
09,06511,CT,NEW HAVEN,72.93177100,41.31836400,54142,.0164710000
09,06512,CT,EAST HAVEN,72.87414400,41.28052200,28963,.0088110000
09,06513,CT,EAST HAVEN,72.88255400,41.31421500,31342,.0095350000
09,06514,CT,HAMDEN,72.93613000,41.36198700,23883,.0072660000
09,06515,CT,NEW HAVEN,72.96644500,41.32930100,18603,.0056590000
09,06516,CT,WEST HAVEN,72.96384200,41.27007900,53642,.0163190000
09,06517,CT,HAMDEN,72.91167800,41.34839300,14604,.0044430000
09,06518,CT,HAMDEN,72.91100100,41.40966400,13802,.0041990000
09,06519,CT,NEW HAVEN,72.93730700,41.29628400,19410,.0059050000
09,06524,CT,BETHANY,73.00070400,41.42619400,4730,.0014390000
09,06525,CT,WOODBRIDGE,73.01390200,41.35166800,7802,.0023740000
09,06604,CT,BRIDGEPORT,73.20185900,41.17957400,28219,.0085850000
09,06605,CT,BRIDGEPORT,73.21625100,41.16679600,23800,.0072400000
09,06606,CT,BRIDGEPORT,73.20861900,41.20907000,41879,.0127400000
09,06607,CT,BRIDGEPORT,73.16504800,41.17838200,9292,.0028270000
09,06608,CT,BRIDGEPORT,73.18114100,41.18946600,17721,.0053910000
09,06610,CT,BRIDGEPORT,73.16877100,41.20050800,20727,.0063060000
09,06611,CT,TRUMBULL,73.21106300,41.25641000,32213,.0098000000
09,06612,CT,EASTON,73.28710800,41.25232800,6213,.0018900000
09,06702,CT,WATERBURY,73.03854500,41.55656800,4522,.0013760000
09,06704,CT,WATERBURY,73.03180500,41.57543500,26018,.0079150000
09,06705,CT,WATERBURY,72.99626800,41.55032800,25128,.0076440000
09,06706,CT,WATERBURY,73.03064000,41.53626100,15431,.0046940000
09,06708,CT,WATERBURY,73.06449500,41.55110200,27661,.0084150000
09,06710,CT,WATERBURY,73.04682100,41.56750300,9921,.0030180000
09,06712,CT,PROSPECT,72.97880300,41.50219800,7775,.0023650000
09,06716,CT,WOLCOTT,72.98279900,41.59699500,13787,.0041940000
09,06750,CT,BANTAM,73.25202800,41.72148300,1418,.0004310000
09,06751,CT,BETHLEHEM,73.20909800,41.63868300,3071,.0009340000
09,06752,CT,BRIDGEWATER,73.36093600,41.52868400,1654,.0005030000
09,06754,CT,WARREN,73.36747200,41.77008400,1278,.0003890000
09,06755,CT,GAYLORDSVILLE,73.48352400,41.64863500,890,.0002710000
09,06756,CT,GOSHEN,73.24287600,41.83345200,2314,.0007040000
09,06757,CT,KENT,73.45834500,41.73161900,2035,.0006190000
09,06758,CT,LAKESIDE,73.23823500,41.69001000,997,.0003030000
09,06759,CT,LITCHFIELD,73.20001100,41.75406900,5573,.0016950000
09,06762,CT,MIDDLEBURY,73.11307000,41.53427700,6338,.0019280000
09,06763,CT,MORRIS,73.17650900,41.68812100,849,.0002580000
09,06770,CT,NAUGATUCK,73.04934200,41.49203900,30625,.0093170000
09,06776,CT,NEW MILFORD,73.41275200,41.58174500,22750,.0069210000
09,06777,CT,NEW PRESTON MARB,73.34929600,41.68937300,1697,.0005160000
09,06778,CT,NORTHFIELD,73.13207900,41.70738200,442,.0001340000
09,06779,CT,OAKVILLE,73.08731100,41.59093200,8455,.0025720000
09,06782,CT,PLYMOUTH,73.04488700,41.66112100,2910,.0008850000
09,06783,CT,ROXBURY,73.29934600,41.55090000,1825,.0005550000
09,06784,CT,SHERMAN,73.49469400,41.57136600,2808,.0008540000
09,06785,CT,SOUTH KENT,73.46902300,41.69505100,719,.0002190000
09,06786,CT,TERRYVILLE,73.00921400,41.67619700,8912,.0027110000
09,06787,CT,THOMASTON,73.08855700,41.67864300,8179,.0024880000
09,06790,CT,TORRINGTON,73.11557900,41.81306500,33969,.0103340000
09,06791,CT,HARWINTON,73.07281900,41.77014500,5228,.0015900000
09,06793,CT,WASHINGTON DEPOT,73.29351800,41.63459500,1381,.0004200000
09,06794,CT,WASHINGTON DEPOT,73.32735200,41.65592400,1323,.0004020000
09,06795,CT,WATERTOWN,73.12212200,41.60565400,12021,.0036570000
09,06796,CT,WEST CORNWALL,73.33127100,41.86888800,1042,.0003170000
09,06798,CT,WOODBURY,73.20826400,41.55206100,8131,.0024740000
09,06801,CT,BETHEL,73.40082700,41.38129800,17538,.0053350000
09,06804,CT,BROOKFIELD,73.39798600,41.46504000,14223,.0043270000
09,06807,CT,COS COB,73.59349800,41.05295200,7000,.0021300000
09,06810,CT,DANBURY,73.45316500,41.39166300,37764,.0114880000
09,06811,CT,DANBURY,73.47158700,41.42398300,27609,.0083990000
09,06812,CT,NEW FAIRFIELD,73.49778400,41.47299900,13013,.0039590000
09,06820,CT,DARIEN,73.48525400,41.07675900,18062,.0054950000
09,06830,CT,BYRAM,73.63004700,41.03023800,22685,.0069010000
09,06831,CT,GREENWICH,73.65940500,41.05488500,14545,.0044250000
09,06840,CT,NEW CANAAN,73.49435600,41.15102400,17937,.0054570000
09,06850,CT,NORWALK,73.43582700,41.12222000,17332,.0052730000
09,06851,CT,NORWALK,73.40580200,41.13234600,24412,.0074270000
09,06853,CT,NORWALK,73.43966700,41.07024300,3979,.0012100000
09,06854,CT,NORWALK,73.42848500,41.09572200,25358,.0077140000
09,06855,CT,NORWALK,73.40111900,41.10138200,7311,.0022240000
09,06870,CT,OLD GREENWICH,73.56725300,41.03543700,6511,.0019810000
09,06877,CT,RIDGEFIELD,73.49726800,41.29768300,21691,.0065990000
09,06878,CT,RIVERSIDE,73.58113600,41.03799800,7765,.0023620000
09,06880,CT,WESTPORT,73.34957900,41.14343300,24705,.0075160000
09,06883,CT,WESTON,73.37147400,41.21949900,8517,.0025910000
09,06896,CT,WEST REDDING,73.39350000,41.30691500,7183,.0021850000
09,06897,CT,WILTON,73.43832300,41.20176100,15795,.0048050000
09,06901,CT,STAMFORD,73.53903900,41.05308300,5860,.0017830000
09,06902,CT,STAMFORD,73.53742800,41.05255200,54605,.0166120000
09,06903,CT,STAMFORD,73.56835600,41.13523500,14172,.0043110000
09,06905,CT,RIDGEWAY,73.54375700,41.08257600,17839,.0054270000
09,06906,CT,STAMFORD,73.52356300,41.06921800,7019,.0021350000
09,06907,CT,STAMFORD,73.52029700,41.09420600,8498,.0025850000
10,19701,DE,BEAR,75.67472900,39.61018700,21384,.0321000000
10,19702,DE,NEWARK,75.69933900,39.63486900,30402,.0456370000
10,19703,DE,CLAYMONT,75.46494000,39.80443200,16699,.0250670000
10,19707,DE,HOCKESSIN,75.68887300,39.77604000,13149,.0197380000
10,19709,DE,MIDDLETOWN,75.68318300,39.48153500,10243,.0153760000
10,19711,DE,NEWARK,75.73753400,39.70112900,50573,.0759160000
10,19713,DE,NEWARK,75.71510100,39.66988100,30699,.0460830000
10,19720,DE,MANOR,75.58993800,39.67703000,46906,.0704120000
10,19734,DE,TOWNSEND,75.68336800,39.38188200,4512,.0067730000
10,19801,DE,WILMINGTON,75.54965800,39.73775200,15151,.0227440000
10,19802,DE,WILMINGTON,75.53404100,39.75638000,27411,.0411470000
10,19803,DE,TALLEYVILLE,75.53107600,39.79323600,20901,.0313750000
10,19804,DE,NEWPORT,75.61281500,39.72085400,18306,.0274800000
10,19805,DE,WILMINGTON,75.58272400,39.74337500,40087,.0601760000
10,19806,DE,WILMINGTON,75.56350300,39.75707600,9645,.0144780000
10,19807,DE,GREENVILLE,75.60720500,39.78220600,7176,.0107720000
10,19808,DE,MARSHALLTON,75.66389100,39.73473700,34260,.0514280000
10,19809,DE,EDGEMOOR,75.49459200,39.77191300,14285,.0214440000
10,19810,DE,EDGEMOOR,75.50599900,39.81937700,26334,.0395310000
10,19901,DE,DOVER,75.53598300,39.15663900,46005,.0690590000
10,19902,DE,DOVER AFB,75.47896600,39.12024600,5500,.0082560000
10,19930,DE,BETHANY BEACH,75.06739600,38.53100900,769,.0011540000
10,19931,DE,BETHEL,75.62429800,38.56851700,108,.0001620000
10,19933,DE,BRIDGEVILLE,75.60876800,38.73662800,4353,.0065340000
10,19934,DE,CAMDEN WYOMING,75.59655900,39.09909900,8877,.0133250000
10,19938,DE,CLAYTON,75.69036100,39.25639500,4906,.0073650000
10,19939,DE,DAGSBORO,75.21133000,38.55955900,2593,.0038920000
10,19940,DE,DELMAR,75.57588700,38.47695500,4257,.0063900000
10,19941,DE,ELLENDALE,75.40558800,38.80573700,2445,.0036700000
10,19943,DE,FELTON,75.58290600,39.02253800,7282,.0109310000
10,19945,DE,FRANKFORD,75.20063300,38.51767000,5500,.0082560000
10,19946,DE,FREDERICA,75.45445800,39.03418800,2725,.0040910000
10,19947,DE,GEORGETOWN,75.39319800,38.67900600,11371,.0170690000
10,19950,DE,GREENWOOD,75.59354700,38.81751900,4279,.0064230000
10,19951,DE,HARBESON,75.22362100,38.67229400,598,.0008980000
10,19952,DE,HARRINGTON,75.58426800,38.92403100,7972,.0119670000
10,19953,DE,HARTLY,75.69347600,39.15421000,3558,.0053410000
10,19954,DE,HOUSTON,75.50635400,38.91143000,1776,.0026660000
10,19956,DE,LAUREL,75.56305200,38.55369500,9283,.0139350000
10,19958,DE,LEWES,75.17470200,38.73814900,9503,.0142650000
10,19960,DE,LINCOLN,75.39996100,38.86128000,4435,.0066570000
10,19962,DE,MAGNOLIA,75.50832100,39.07353000,4567,.0068560000
10,19963,DE,MILFORD,75.42987700,38.92180100,12187,.0182940000
10,19964,DE,MARYDEL,75.72866100,39.09979400,975,.0014640000
10,19966,DE,LONG NECK,75.25554700,38.59343600,11962,.0179560000
10,19967,DE,MILLVILLE,75.10776200,38.55894600,623,.0009350000
10,19968,DE,MILTON,75.29529800,38.76868700,4656,.0069890000
10,19970,DE,MILLVILLE,75.09651800,38.55552800,1532,.0023000000
10,19971,DE,DEWEY BEACH,75.10734600,38.71471500,6249,.0093810000
10,19973,DE,SEAFORD,75.60412200,38.64035800,18404,.0276270000
10,19975,DE,SELBYVILLE,75.15732500,38.46535700,4478,.0067220000
10,19977,DE,SMYRNA,75.60083200,39.29337900,14164,.0212620000
10,19979,DE,VIOLA,75.57260500,39.04187200,153,.0002300000
11,20001,DC,WASHINGTON,77.01769100,38.91221700,34745,.0572500000
11,20002,DC,WASHINGTON,76.99005500,38.90236500,56756,.0935180000
11,20003,DC,WASHINGTON,76.98953900,38.88294100,24818,.0408930000
11,20004,DC,WASHINGTON,77.02630300,38.89295500,11,.0000180000
11,20005,DC,WASHINGTON,77.03123600,38.90673100,9862,.0162500000
11,20006,DC,WASHINGTON,77.04470100,38.89644400,2317,.0038180000
11,20007,DC,WASHINGTON,77.07404200,38.91436500,27076,.0446140000
11,20008,DC,WASHINGTON,77.05993600,38.93628200,26736,.0440530000
11,20009,DC,WASHINGTON,77.03750400,38.92020200,47086,.0775840000
11,20010,DC,WASHINGTON,77.03218300,38.93272000,28849,.0475350000
11,20011,DC,WASHINGTON,77.02025100,38.95178600,62924,.1036810000
11,20012,DC,WASHINGTON,77.02824800,38.97571200,15081,.0248490000
11,20015,DC,WASHINGTON,77.06796100,38.96576800,14569,.0240060000
11,20016,DC,WASHINGTON,77.08603700,38.93811700,31042,.0511480000
11,20017,DC,WASHINGTON,76.99403800,38.93672300,19548,.0322100000
11,20018,DC,WASHINGTON,76.97615900,38.92772400,18298,.0301500000
11,20019,DC,WASHINGTON,76.93758800,38.89023700,59492,.0980260000
11,20020,DC,WASHINGTON,76.97418700,38.86003900,54339,.0895350000
11,20024,DC,WASHINGTON,77.01602800,38.87593900,11562,.0190510000
11,20032,DC,WASHINGTON,76.99954900,38.83384300,40265,.0663450000
11,20036,DC,WASHINGTON,77.04143400,38.90870400,4146,.0068310000
11,20037,DC,WASHINGTON,77.05044800,38.90144600,11046,.0182010000
11,20301,DC,PENTAGON,77.03819600,38.89101900,21,.0000350000
11,20336,DC,WASHINGTON,77.01482700,38.83947300,6311,.0103990000
12,32008,FL,BRANFORD,82.89928800,29.93947200,2439,.0001890000
12,32009,FL,BRYCEVILLE,81.97239700,30.41927400,1875,.0001450000
12,32011,FL,CALLAHAN,81.81446500,30.55195800,9111,.0007040000
12,32013,FL,DAY,83.28505200,30.14966600,1567,.0001210000
12,32033,FL,ELKTON,81.46199000,29.78824300,1557,.0001200000
12,32034,FL,AMELIA ISLAND,81.46882900,30.63538800,19016,.0014700000
12,32038,FL,FORT WHITE,82.68793800,29.92073000,3439,.0002660000
12,32040,FL,GLEN SAINT MARY,82.20405600,30.28605800,6467,.0005000000
12,32043,FL,GREEN COVE SPRIN,81.72618200,30.00425000,16033,.0012390000
12,32044,FL,HAMPTON,82.14834700,29.85751100,1274,.0000980000
12,32046,FL,HILLIARD,81.93453000,30.68836700,6486,.0005010000
12,32052,FL,JASPER,82.93218600,30.50291400,6588,.0005090000
12,32053,FL,JENNINGS,83.13497100,30.54824300,2977,.0002300000
12,32054,FL,LAKE BUTLER,82.38279600,30.00348500,8658,.0006690000
12,32055,FL,LAKE CITY,82.65988800,30.16523900,38018,.0029380000
12,32058,FL,LAWTEY,82.10554400,30.04716400,4108,.0003180000
12,32059,FL,LEE,83.28439200,30.39786300,1260,.0000970000
12,32060,FL,BOYS RANCH,83.02499400,30.28662200,19075,.0014740000
12,32061,FL,LULU,82.53848100,30.07544000,295,.0000230000
12,32062,FL,MC ALPIN,82.96618200,30.15089900,2062,.0001590000
12,32063,FL,MACCLENNY,82.13247500,30.27367100,9749,.0007540000
12,32065,FL,ORANGE PARK,81.77419900,30.13823300,19248,.0014880000
12,32066,FL,MAYO,83.14620800,30.03997900,3475,.0002690000
12,32068,FL,MIDDLEBURG,81.86447600,30.08398400,23245,.0017970000
12,32071,FL,O BRIEN,82.93005000,30.03811400,1305,.0001010000
12,32073,FL,ORANGE PARK,81.72907000,30.16369000,37281,.0028820000
12,32082,FL,PONTE VEDRA BEAC,81.38638300,30.21532600,14727,.0011380000
12,32083,FL,RAIFORD,82.20012000,30.07037900,1594,.0001230000
12,32084,FL,SAINT AUGUSTINE,81.29836700,29.88045700,24906,.0019250000
12,32086,FL,SAINT AUGUSTINE,81.32373400,29.82851400,16939,.0013090000
12,32087,FL,SANDERSON,82.33774100,30.30253600,2270,.0001750000
12,32091,FL,STARKE,82.11851800,29.95829900,15058,.0011640000
12,32092,FL,SAINT AUGUSTINE,81.52637900,29.94751100,4702,.0003630000
12,32094,FL,WELLBORN,82.85053200,30.17962400,1621,.0001250000
12,32095,FL,SAINT AUGUSTINE,81.34762600,29.90572600,12132,.0009380000
12,32096,FL,WHITE SPRINGS,82.77645300,30.33874900,1671,.0001290000
12,32097,FL,YULEE,81.59060300,30.62222500,7453,.0005760000
12,32102,FL,ASTOR,81.53992900,29.16503100,2092,.0001620000
12,32110,FL,BUNNELL,81.32443100,29.45616000,4925,.0003810000
12,32112,FL,CRESCENT CITY,81.55790900,29.44543800,7481,.0005780000
12,32113,FL,CITRA,82.10622200,29.39182000,3340,.0002580000
12,32114,FL,DAYTONA BEACH,81.03707100,29.20116800,34235,.0026460000
12,32117,FL,HOLLY HILL,81.05469800,29.23600600,22599,.0017470000
12,32118,FL,DAYTONA BEACH,81.00946900,29.22187400,17009,.0013150000
12,32119,FL,DUNLAWTON,81.02214200,29.15252600,36500,.0028210000
12,32124,FL,PORT ORANGE,81.10674600,29.12245600,7360,.0005690000
12,32127,FL,PORT ORANGE,80.98835100,29.11240000,25925,.0020040000
12,32130,FL,DE LEON SPRINGS,81.34876200,29.11659200,2267,.0001750000
12,32131,FL,EAST PALATKA,81.58787900,29.66086100,5851,.0004520000
12,32132,FL,EDGEWATER,80.91034400,28.98180100,6690,.0005170000
12,32134,FL,SALT SPRINGS,81.88775700,29.27955400,14324,.0011070000
12,32136,FL,FLAGLER BEACH,81.13028800,29.47497800,4608,.0003560000
12,32137,FL,PALM COAST,81.21899000,29.55651500,18194,.0014060000
12,32139,FL,GEORGETOWN,81.62978300,29.40331500,1839,.0001420000
12,32140,FL,FLORAHOME,81.86222400,29.75810500,1475,.0001140000
12,32141,FL,EDGEWATER,80.89686900,28.94548100,11379,.0008800000
12,32145,FL,HASTINGS,81.49090800,29.70514700,2189,.0001690000
12,32148,FL,INTERLACHEN,81.88943200,29.62700100,15416,.0011920000
12,32159,FL,LADY LAKE,81.92559800,28.92993900,11493,.0008880000
12,32168,FL,NEW SMYRNA BEACH,80.95843600,29.02467200,17624,.0013620000
12,32169,FL,NEW SMYRNA BEACH,80.88846300,29.01719600,9169,.0007090000
12,32174,FL,ORMOND BEACH,81.08821600,29.28330500,34477,.0026650000
12,32176,FL,ORMOND BEACH,81.05843200,29.32219200,15383,.0011890000
12,32177,FL,PALATKA,81.65945200,29.65774800,24263,.0018750000
12,32179,FL,OCKLAWAHA,81.88569000,29.06430800,4385,.0003390000
12,32180,FL,PIERSON,81.43533000,29.22259600,7341,.0005670000
12,32181,FL,POMONA PARK,81.63073900,29.50210600,1006,.0000780000
12,32187,FL,SAN MATEO,81.59210000,29.58882700,1864,.0001440000
12,32189,FL,SATSUMA,81.64059600,29.55935400,3490,.0002700000
12,32190,FL,SEVILLE,81.52789400,29.32008400,436,.0000340000
12,32195,FL,WEIRSDALE,81.89316800,28.97818200,3034,.0002350000
12,32202,FL,JACKSONVILLE,81.65167200,30.32988200,4724,.0003650000
12,32204,FL,JACKSONVILLE,81.68544500,30.31889900,8839,.0006830000
12,32205,FL,JACKSONVILLE,81.72203400,30.31723600,46463,.0035910000
12,32206,FL,JACKSONVILLE,81.64876900,30.35107300,23301,.0018010000
12,32207,FL,JACKSONVILLE,81.63205000,30.29076600,35661,.0027560000
12,32208,FL,JACKSONVILLE,81.68893900,30.39366400,35615,.0027530000
12,32209,FL,JACKSONVILLE,81.69197400,30.35841000,42856,.0033120000
12,32210,FL,JACKSONVILLE,81.74731200,30.26874300,54548,.0042160000
12,32211,FL,JACKSONVILLE,81.58824800,30.34803400,54199,.0041890000
12,32212,FL,JACKSONVILLE N A,81.68848000,30.22090500,2517,.0001950000
12,32215,FL,CECIL FIELD NAS,81.66314200,30.23295000,0,.0000000000
12,32216,FL,JACKSONVILLE,81.54738700,30.29390700,58867,.0045500000
12,32217,FL,JACKSONVILLE,81.61695600,30.24067800,19356,.0014960000
12,32218,FL,JACKSONVILLE,81.66263100,30.45067000,30493,.0023570000
12,32219,FL,JACKSONVILLE,81.76345100,30.40336500,9570,.0007400000
12,32220,FL,JACKSONVILLE,81.81757200,30.32900300,9389,.0007260000
12,32221,FL,JACKSONVILLE,81.82023100,30.28370700,18244,.0014100000
12,32222,FL,JACKSONVILLE,81.81308100,30.22917600,4093,.0003160000
12,32223,FL,JACKSONVILLE,81.62996100,30.15481700,19120,.0014780000
12,32224,FL,JACKSONVILLE,81.44042700,30.30307600,2535,.0001960000
12,32225,FL,JACKSONVILLE,81.50609200,30.35096800,26551,.0020520000
12,32226,FL,JACKSONVILLE,81.54480800,30.47348500,6880,.0005320000
12,32227,FL,JACKSONVILLE BEA,81.40542400,30.38827500,9055,.0007000000
12,32233,FL,ATLANTIC BEACH,81.41586600,30.34825800,23412,.0018100000
12,32234,FL,BALDWIN,81.97834500,30.22956200,5830,.0004510000
12,32244,FL,JACKSONVILLE,81.75558000,30.22313700,37603,.0029060000
12,32250,FL,JACKSONVILLE BEA,81.40624300,30.28319000,22392,.0017310000
12,32256,FL,JACKSONVILLE,81.55713900,30.22135600,17293,.0013370000
12,32257,FL,JACKSONVILLE,81.60504200,30.19270300,30022,.0023200000
12,32258,FL,JACKSONVILLE,81.57386400,30.14594400,7261,.0005610000
12,32259,FL,JACKSONVILLE,81.62170100,30.09557800,6677,.0005160000
12,32266,FL,NEPTUNE BEACH,81.40512300,30.31548000,6816,.0005270000
12,32301,FL,TALLAHASSEE,84.25933700,30.42856300,21329,.0016490000
12,32303,FL,TALLAHASSEE,84.31894600,30.48743300,36053,.0027870000
12,32304,FL,TALLAHASSEE,84.32113200,30.44775200,33437,.0025840000
12,32306,FL,TALLAHASSEE,84.29559400,30.44215200,1690,.0001310000
12,32308,FL,TALLAHASSEE,84.20690300,30.50772500,34857,.0026940000
12,32310,FL,TALLAHASSEE,84.32980000,30.39912500,30379,.0023480000
12,32311,FL,TALLAHASSEE,84.18699500,30.41562500,17005,.0013140000
12,32312,FL,TALLAHASSEE,84.26270800,30.51847400,17743,.0013710000
12,32320,FL,APALACHICOLA,85.00626400,29.72546500,3859,.0002980000
12,32321,FL,BRISTOL,84.94655800,30.42227900,4078,.0003150000
12,32322,FL,CARRABELLE,84.63584500,29.86920500,2138,.0001650000
12,32324,FL,CHATTAHOOCHEE,84.82804400,30.68339400,6325,.0004890000
12,32327,FL,CRAWFORDVILLE,84.32047900,30.21083100,10004,.0007730000
12,32328,FL,SAINT GEORGE ISL,84.87010000,29.73390600,2541,.0001960000
12,32331,FL,GREENVILLE,83.64739700,30.45119900,4107,.0003170000
12,32333,FL,HAVANA,84.41434000,30.60924200,9767,.0007550000
12,32334,FL,HOSFORD,84.80543300,30.36387500,1491,.0001150000
12,32336,FL,LAMONT,83.90026600,30.36534100,1409,.0001090000
12,32340,FL,MADISON,83.40667800,30.48020900,11339,.0008760000
12,32344,FL,MONTICELLO,83.89245400,30.51968100,9578,.0007400000
12,32346,FL,PANACEA,84.39121200,30.01532200,1292,.0001000000
12,32347,FL,PERRY,83.58502100,30.09748900,15401,.0011900000
12,32350,FL,PINETTA,83.34046300,30.59970300,642,.0000500000
12,32351,FL,QUINCY,84.60945000,30.58667500,25013,.0019330000
12,32356,FL,SALEM,83.38582800,29.82381500,264,.0000200000
12,32358,FL,SOPCHOPPY,84.45487700,30.07135300,3335,.0002580000
12,32359,FL,STEINHATCHEE,83.37233200,29.67387100,1415,.0001090000
12,32401,FL,PANAMA CITY,85.64940300,30.16062400,24968,.0019300000
12,32403,FL,PANAMA CITY,85.57622500,30.05825200,5333,.0004120000
12,32404,FL,PANAMA CITY,85.57626400,30.16529100,30101,.0023270000
12,32405,FL,PANAMA CITY,85.67268600,30.19494900,25701,.0019860000
12,32407,FL,PANAMA CITY BEAC,85.79198400,30.19462300,3115,.0002410000
12,32408,FL,PANAMA CITY BEAC,85.76362800,30.16085900,9702,.0007500000
12,32409,FL,SOUTHPORT,85.64453600,30.31067900,5001,.0003870000
12,32413,FL,PANAMA CITY BEAC,85.90494600,30.24583500,5646,.0004360000
12,32420,FL,ALFORD,85.34838000,30.71410600,576,.0000450000
12,32421,FL,ALTHA,85.17043000,30.53188200,3280,.0002540000
12,32423,FL,BASCOM,85.09722000,30.95136500,1011,.0000780000
12,32424,FL,BLOUNTSTOWN,85.06202200,30.43940000,6984,.0005400000
12,32425,FL,BONIFAY,85.68996200,30.84636900,9342,.0007220000
12,32426,FL,CAMPBELLTON,85.37659600,30.95629000,741,.0000570000
12,32427,FL,CARYVILLE,85.79978700,30.79687800,2517,.0001950000
12,32428,FL,CHIPLEY,85.54864600,30.71065800,11248,.0008690000
12,32430,FL,CLARKSVILLE,85.18980600,30.35683400,129,.0000100000
12,32431,FL,COTTONDALE,85.38467200,30.80035900,3333,.0002580000
12,32433,FL,DE FUNIAK SPRING,86.13800600,30.75178300,15496,.0011980000
12,32437,FL,EBRO,85.88806600,30.43518100,361,.0000280000
12,32438,FL,FOUNTAIN,85.42927200,30.47532700,1869,.0001440000
12,32439,FL,FREEPORT,86.16844100,30.48959600,744,.0000580000
12,32440,FL,GRACEVILLE,85.51362200,30.94260100,5353,.0004140000
12,32442,FL,GRAND RIDGE,85.02095400,30.71483100,1708,.0001320000
12,32443,FL,GREENWOOD,85.15549000,30.85250600,4058,.0003140000
12,32444,FL,LYNN HAVEN,85.64665800,30.23616500,12205,.0009430000
12,32445,FL,MALONE,85.16387400,30.96024500,1046,.0000810000
12,32446,FL,MARIANNA,85.22936700,30.75858700,17908,.0013840000
12,32449,FL,KINARD,85.20646700,30.26324100,297,.0000230000
12,32455,FL,PONCE DE LEON,85.95463300,30.70414600,2200,.0001700000
12,32456,FL,PORT SAINT JOE,85.29878700,29.83539000,7490,.0005790000
12,32459,FL,SANTA ROSA BEACH,86.24580900,30.36588300,5039,.0003890000
12,32460,FL,SNEADS,84.93365500,30.72761900,6334,.0004900000
12,32462,FL,VERNON,85.75528600,30.62668000,4111,.0003180000
12,32464,FL,WESTVILLE,85.91297300,30.87468900,3081,.0002380000
12,32465,FL,WEWAHITCHKA,85.20483000,30.09325500,4014,.0003100000
12,32466,FL,YOUNGSTOWN,85.51688100,30.32691300,3634,.0002810000
12,32501,FL,PENSACOLA,87.22476300,30.42228200,16485,.0012740000
12,32503,FL,PENSACOLA,87.21043200,30.45640600,34491,.0026660000
12,32504,FL,PENSACOLA,87.18724200,30.48729900,23077,.0017840000
12,32505,FL,PENSACOLA,87.25893700,30.44806900,29026,.0022430000
12,32506,FL,PENSACOLA,87.30918500,30.41291200,29834,.0023060000
12,32507,FL,PENSACOLA,87.31255800,30.37370700,23525,.0018180000
12,32508,FL,PENSACOLA,87.27494500,30.35106300,3688,.0002850000
12,32514,FL,PENSACOLA,87.21672300,30.52414800,30185,.0023330000
12,32526,FL,PENSACOLA,87.31792500,30.47559300,28674,.0022160000
12,32531,FL,BAKER,86.67701500,30.83156900,3389,.0002620000
12,32533,FL,CANTONMENT,87.32505200,30.61425300,19829,.0015330000
12,32534,FL,PENSACOLA,87.27932400,30.53006500,12046,.0009310000
12,32535,FL,CENTURY,87.32158200,30.96874200,5422,.0004190000
12,32536,FL,CRESTVIEW,86.55367800,30.77061000,21799,.0016850000
12,32541,FL,SANDESTIN,86.48490300,30.39719800,8080,.0006250000
12,32542,FL,EGLIN A F B,86.61595800,30.47940900,13431,.0010380000
12,32547,FL,FORT WALTON BEAC,86.62748700,30.44729700,27344,.0021130000
12,32548,FL,FORT WALTON BEAC,86.62147900,30.41526200,21791,.0016840000
12,32561,FL,GULF BREEZE,87.04387500,30.38470000,27875,.0021550000
12,32564,FL,HOLT,86.70463800,30.72522000,1821,.0001410000
12,32565,FL,JAY,87.13323700,30.89848800,5952,.0004600000
12,32566,FL,NAVARRE,86.93710200,30.59026100,5537,.0004280000
12,32567,FL,LAUREL HILL,86.40032300,30.95236000,2967,.0002290000
12,32568,FL,WALNUT HILL,87.44962800,30.87004300,3604,.0002790000
12,32569,FL,MARY ESTHER,86.71271900,30.41218600,9382,.0007250000
12,32570,FL,MILTON,87.04727800,30.66041300,20038,.0015490000
12,32571,FL,PACE,87.15033000,30.61617300,15661,.0012100000
12,32578,FL,NICEVILLE,86.41446000,30.49577100,25146,.0019440000
12,32579,FL,SHALIMAR,86.57172400,30.44556500,9327,.0007210000
12,32580,FL,VALPARAISO,86.50091400,30.50919700,4964,.0003840000
12,32583,FL,MILTON,87.06627300,30.57605800,9457,.0007310000
12,32601,FL,GAINESVILLE,82.31004600,29.64502900,31328,.0024210000
12,32603,FL,GAINESVILLE,82.34928600,29.65148400,5271,.0004070000
12,32605,FL,GAINESVILLE,82.36794000,29.67845800,21349,.0016500000
12,32606,FL,GAINESVILLE,82.40232400,29.69539300,18408,.0014230000
12,32607,FL,GAINESVILLE,82.40325200,29.64561800,21103,.0016310000
12,32608,FL,GAINESVILLE,82.38728200,29.61320400,22945,.0017730000
12,32609,FL,GAINESVILLE,82.30803200,29.70053000,17668,.0013660000
12,32611,FL,GAINESVILLE,82.35092000,29.64414800,8023,.0006200000
12,32615,FL,SANTA FE,82.48053100,29.79699600,9414,.0007280000
12,32617,FL,ANTHONY,82.12615700,29.30478500,6296,.0004870000
12,32618,FL,ARCHER,82.51084000,29.55973800,6188,.0004780000
12,32619,FL,BELL,82.87110600,29.78373000,2446,.0001890000
12,32620,FL,32620,82.04621000,29.05044400,11567,.0008940000
12,32621,FL,BRONSON,82.63564400,29.46095200,2111,.0001630000
12,32622,FL,BROOKER,82.29563400,29.91902800,1194,.0000920000
12,32625,FL,CEDAR KEY,83.01679300,29.17100600,1173,.0000910000
12,32626,FL,CHIEFLAND,82.88089600,29.48324300,7498,.0005800000
12,32629,FL,32629,82.60677000,28.91080100,4922,.0003800000
12,32630,FL,32630,82.43311800,29.06356400,20682,.0015990000
12,32631,FL,EARLETON,82.11376200,29.72215900,1014,.0000780000
12,32636,FL,32636,82.29040100,28.74250800,7024,.0005430000
12,32640,FL,HAWTHORNE,82.10562500,29.57399800,4151,.0003210000
12,32642,FL,32642,82.39251600,28.92637100,8744,.0006760000
12,32643,FL,HIGH SPRINGS,82.61562800,29.84102200,7557,.0005840000
12,32646,FL,32646,82.59362300,28.78583900,5676,.0004390000
12,32648,FL,HORSESHOE BEACH,83.26158700,29.48689000,652,.0000500000
12,32649,FL,32649,82.66134300,29.07603400,4778,.0003690000
12,32650,FL,32650,82.32071300,28.85100200,15207,.0011750000
12,32652,FL,32652,82.34364700,28.80514000,8683,.0006710000
12,32656,FL,KEYSTONE HEIGHTS,81.98988500,29.79757900,8011,.0006190000
12,32661,FL,32661,82.52844800,28.82466100,20969,.0016210000
12,32665,FL,32665,82.50147800,28.91188600,11309,.0008740000
12,32666,FL,MELROSE,82.02786300,29.73245600,5507,.0004260000
12,32667,FL,MICANOPY,82.27969800,29.52602900,2409,.0001860000
12,32668,FL,MORRISTON,82.49166800,29.28126000,2054,.0001590000
12,32669,FL,NEWBERRY,82.58518800,29.66090600,5491,.0004240000
12,32670,FL,32670,82.11118200,29.21654500,24226,.0018720000
12,32671,FL,32671,82.09065400,29.16682500,30749,.0023770000
12,32672,FL,32672,82.01205200,29.10957200,14868,.0011490000
12,32673,FL,32673,82.23108200,28.99175500,4757,.0003680000
12,32674,FL,32674,82.17298400,29.16133600,12026,.0009300000
12,32675,FL,32675,82.23194300,29.20919800,21074,.0016290000
12,32676,FL,32676,82.18804000,29.07802600,9663,.0007470000
12,32680,FL,OLD TOWN,83.05739300,29.62455800,9494,.0007340000
12,32684,FL,32684,82.03781400,28.92013700,2574,.0001990000
12,32686,FL,REDDICK,82.24399500,29.37535200,10006,.0007730000
12,32688,FL,32688,82.04371500,29.22618500,1337,.0001030000
12,32691,FL,32691,82.04643400,28.99956300,10274,.0007940000
12,32693,FL,TRENTON,82.80934500,29.62637500,6925,.0005350000
12,32694,FL,WALDO,82.16079100,29.78709600,1676,.0001300000
12,32696,FL,WILLISTON,82.48560100,29.39773700,7664,.0005920000
12,32698,FL,32698,82.72816300,29.02210300,173,.0000130000
12,32701,FL,ALTAMONTE SPRING,81.37190800,28.66272800,21392,.0016530000
12,32702,FL,ALTOONA,81.63232200,29.02193500,1743,.0001350000
12,32703,FL,HUNT CLUB,81.48514900,28.66186500,34100,.0026360000
12,32707,FL,CASSELBERRY,81.31221500,28.66167100,30933,.0023910000
12,32708,FL,WINTER SPRINGS,81.28136700,28.68309700,27311,.0021110000
12,32709,FL,CHRISTMAS,81.01157000,28.54624400,2331,.0001800000
12,32712,FL,APOPKA,81.51361500,28.71197600,20208,.0015620000
12,32713,FL,DEBARY,81.30650600,28.88457300,9491,.0007340000
12,32714,FL,FOREST CITY,81.40853300,28.66498300,29133,.0022520000
12,32720,FL,DELAND,81.33485300,29.02659000,23152,.0017890000
12,32724,FL,DELAND,81.28634100,29.04225000,21715,.0016780000
12,32725,FL,DELTONA,81.24730700,28.89889700,27678,.0021390000
12,32726,FL,EUSTIS,81.64513000,28.85768600,19585,.0015140000
12,32730,FL,FERN PARK,81.34183700,28.65116100,4815,.0003720000
12,32732,FL,GENEVA,81.11137000,28.75029900,3827,.0002960000
12,32735,FL,GRAND ISLAND,81.73909300,28.88655200,1416,.0001090000
12,32738,FL,DELTONA,81.19217100,28.90931100,22426,.0017330000
12,32744,FL,LAKE HELEN,81.23336700,28.98056700,3229,.0002500000
12,32746,FL,HEATHROW,81.33807500,28.75235200,9959,.0007700000
12,32750,FL,LONGWOOD,81.35523800,28.71199400,27633,.0021360000
12,32751,FL,EATONVILLE,81.35459800,28.63128400,19834,.0015330000
12,32754,FL,MIMS,80.86627800,28.69738300,8943,.0006910000
12,32757,FL,MOUNT DORA,81.64559300,28.79278700,15757,.0012180000
12,32759,FL,OAK HILL,80.85506300,28.86998500,2261,.0001750000
12,32763,FL,ORANGE CITY,81.29952400,28.94529100,12946,.0010010000
12,32764,FL,OSTEEN,81.15622400,28.84261700,2215,.0001710000
12,32765,FL,OVIEDO,81.20659300,28.65125600,19519,.0015090000
12,32766,FL,CHULUOTA,81.11823700,28.64063400,3280,.0002540000
12,32767,FL,PAISLEY,81.50300900,28.99932300,1963,.0001520000
12,32771,FL,SANFORD,81.28504400,28.80130700,27016,.0020880000
12,32773,FL,SANFORD,81.28204200,28.76438500,19707,.0015230000
12,32776,FL,SORRENTO,81.53231700,28.80351900,5382,.0004160000
12,32778,FL,TAVARES,81.73405000,28.80102700,12131,.0009380000
12,32779,FL,SPRINGS PLAZA,81.42276700,28.70397800,27075,.0020930000
12,32780,FL,TITUSVILLE,80.81914100,28.56971200,28649,.0022140000
12,32784,FL,DONA VISTA,81.67165300,28.93144300,7866,.0006080000
12,32789,FL,WINTER PARK,81.35343600,28.59782400,24236,.0018730000
12,32792,FL,ALOMA,81.30211200,28.60779000,44973,.0034760000
12,32796,FL,TITUSVILLE,80.84291500,28.62707800,19916,.0015390000
12,32798,FL,ZELLWOOD,81.57617400,28.71944000,1930,.0001490000
12,32801,FL,ORLANDO,81.37266800,28.53988200,9275,.0007170000
12,32803,FL,ORLANDO,81.35346200,28.55589700,19992,.0015450000
12,32804,FL,FAIRVILLA,81.39195500,28.57654700,18087,.0013980000
12,32805,FL,ORLANDO,81.40451600,28.53020000,29117,.0022510000
12,32806,FL,ORLANDO,81.35696800,28.51395800,25996,.0020090000
12,32807,FL,AZALEA PARK,81.30527400,28.54492400,28087,.0021710000
12,32808,FL,PINE HILLS,81.44758000,28.58046300,42278,.0032680000
12,32809,FL,PINE CASTLE,81.38175100,28.46191600,17602,.0013600000
12,32810,FL,LOCKHART,81.42585200,28.62218300,23781,.0018380000
12,32811,FL,ORLO VISTA,81.44201400,28.51608200,21545,.0016650000
12,32812,FL,ORLANDO,81.32881600,28.49981000,26888,.0020780000
12,32813,FL,NAVAL TRAINING C,81.32896600,28.57046700,9216,.0007120000
12,32815,FL,KENNEDY SPACE CE,80.58248000,28.49882100,1,.0000000000
12,32817,FL,UNION PARK,81.25353700,28.59025100,20723,.0016020000
12,32818,FL,ORLANDO,81.48461800,28.58014700,26887,.0020780000
12,32819,FL,SAND LAKE,81.45248400,28.46725800,4434,.0003430000
12,32820,FL,UNION PARK,81.11062800,28.57825600,2587,.0002000000
12,32821,FL,ORLANDO,81.46660200,28.39572400,9982,.0007720000
12,32822,FL,VENTURA,81.29387400,28.50476500,33986,.0026270000
12,32824,FL,ORLANDO,81.36218700,28.39315700,8225,.0006360000
12,32825,FL,ORLANDO,81.25708100,28.54686500,26373,.0020380000
12,32826,FL,ORLANDO,81.19070500,28.58260100,12369,.0009560000
12,32827,FL,ORLANDO,81.34297900,28.43168000,3831,.0002960000
12,32828,FL,ORLANDO,81.17948900,28.55229700,3249,.0002510000
12,32829,FL,ORLANDO,81.26077800,28.48487700,3848,.0002970000
12,32830,FL,LAKE BUENA VISTA,81.51903400,28.36937800,6,.0000000000
12,32831,FL,ORLANDO,81.19176800,28.48822900,1123,.0000870000
12,32832,FL,ORLANDO,81.18880700,28.37742800,1863,.0001440000
12,32833,FL,UNION PARK,81.09812900,28.53179700,3748,.0002900000
12,32835,FL,ORLANDO,81.47866300,28.52888500,20343,.0015720000
12,32836,FL,ORLANDO,81.49564000,28.46084200,21329,.0016490000
12,32837,FL,ORLANDO,81.41788200,28.39486100,13075,.0010110000
12,32839,FL,ORLANDO,81.40816200,28.48710200,33946,.0026240000
12,32901,FL,MELBOURNE,80.62001500,28.06913200,21138,.0016340000
12,32903,FL,INDIALANTIC,80.57871800,28.10905900,11020,.0008520000
12,32904,FL,MELBOURNE VILLAG,80.66857700,28.07317700,15441,.0011930000
12,32905,FL,PALM BAY,80.59908700,28.01460500,26367,.0020380000
12,32907,FL,PALM BAY,80.67388900,28.01684900,25674,.0019840000
12,32908,FL,PALM BAY,80.68942600,27.98163600,3272,.0002530000
12,32909,FL,PALM BAY,80.64732700,27.96936000,12028,.0009300000
12,32920,FL,CAPE CANAVERAL,80.60426700,28.39034000,7655,.0005920000
12,32922,FL,COCOA,80.74645500,28.36718300,17316,.0013380000
12,32925,FL,PATRICK A F B,80.60712600,28.25989600,597,.0000460000
12,32926,FL,COCOA,80.78696900,28.39098700,17930,.0013860000
12,32927,FL,PORT SAINT JOHN,80.79111400,28.46844000,17351,.0013410000
12,32931,FL,COCOA BEACH,80.61206600,28.33245100,14989,.0011590000
12,32934,FL,EAU GALLIE,80.69168300,28.13682200,9539,.0007370000
12,32935,FL,MELBOURNE,80.65235300,28.13838500,34153,.0026400000
12,32937,FL,INDIAN HARBOR BE,80.59867100,28.17857100,28921,.0022350000
12,32940,FL,MELBOURNE,80.68495900,28.20613600,5360,.0004140000
12,32948,FL,FELLSMERE,80.60194700,27.76427300,2936,.0002270000
12,32951,FL,MELBOURNE BEACH,80.53893600,28.02192300,8060,.0006230000
12,32952,FL,MERRITT ISLAND,80.67818000,28.32860700,12919,.0009990000
12,32953,FL,MERRITT ISLAND,80.69586500,28.39123400,23338,.0018040000
12,32955,FL,ROCKLEDGE,80.73193000,28.31344100,20576,.0015900000
12,32958,FL,SEBASTIAN,80.47843200,27.79008200,14084,.0010890000
12,32960,FL,VERO BEACH,80.40307500,27.63298500,19207,.0014850000
12,32962,FL,VERO BEACH,80.39225100,27.58848600,17462,.0013500000
12,32963,FL,INDIAN RIVER SHO,80.36091600,27.65362300,10980,.0008490000
12,32966,FL,VERO BEACH,80.47939000,27.63721400,10687,.0008260000
12,32967,FL,VERO BEACH,80.44161700,27.69722300,9607,.0007430000
12,32968,FL,VERO BEACH,80.43822300,27.59993000,5238,.0004050000
12,32976,FL,BAREFOOT BAY,80.51605100,27.87814600,7870,.0006080000
12,33004,FL,DANIA,80.14472800,26.04755700,12552,.0009700000
12,33009,FL,HALLANDALE,80.14073700,25.98501900,33743,.0026080000
12,33010,FL,HIALEAH,80.28080100,25.83253600,40437,.0031250000
12,33012,FL,HIALEAH,80.30590000,25.86539500,73194,.0056570000
12,33013,FL,HIALEAH,80.27253300,25.85935100,30108,.0023270000
12,33014,FL,HIALEAH,80.30625500,25.89634900,35873,.0027730000
12,33015,FL,HIALEAH,80.31654500,25.93884100,31171,.0024090000
12,33016,FL,HIALEAH,80.33681000,25.88026200,32053,.0024770000
12,33019,FL,HOLLYWOOD,80.12193100,26.00701100,12115,.0009360000
12,33020,FL,HOLLYWOOD,80.15166000,26.01609100,35468,.0027410000
12,33021,FL,HOLLYWOOD,80.18908500,26.02183600,39987,.0030910000
12,33023,FL,MIRAMAR,80.21603500,25.98751600,54274,.0041950000
12,33024,FL,PEMBROKE PINES,80.24018300,26.02427300,54411,.0042060000
12,33025,FL,HOLLYWOOD,80.27123600,25.99206100,24778,.0019150000
12,33026,FL,HOLLYWOOD,80.29744100,26.02292700,21473,.0016600000
12,33027,FL,HOLLYWOOD,80.32484000,25.99744900,6955,.0005380000
12,33028,FL,HOLLYWOOD,80.33079700,26.02480400,186,.0000140000
12,33029,FL,PEMBROKE PINES,80.42840700,26.01375000,2882,.0002230000
12,33030,FL,HOMESTEAD,80.48385300,25.47663900,26721,.0020650000
12,33031,FL,HOMESTEAD,80.50746300,25.53231400,5880,.0004540000
12,33032,FL,PRINCETON,80.40918000,25.52119100,18070,.0013970000
12,33033,FL,HOMESTEAD,80.43801400,25.49057600,25439,.0019660000
12,33034,FL,FLORIDA CITY,80.54843800,25.39633200,12115,.0009360000
12,33035,FL,HOMESTEAD,80.45715300,25.45733800,1727,.0001330000
12,33036,FL,ISLAMORADA,80.62995300,24.92333100,3810,.0002940000
12,33037,FL,OCEAN REEF,80.40608400,25.14021400,12076,.0009330000
12,33039,FL,HOMESTEAD AIR FO,80.39051300,25.49908800,6538,.0005050000
12,33040,FL,NAVAL AIR STATIO,81.76217900,24.56531300,32986,.0025500000
12,33042,FL,SUMMERLAND KEY,81.49356400,24.65532200,3952,.0003050000
12,33043,FL,BIG PINE KEY,81.36202900,24.67999600,5956,.0004600000
12,33050,FL,MARATHON,81.03858100,24.72791900,12792,.0009890000
12,33054,FL,OPA LOCKA,80.24700400,25.90966200,30405,.0023500000
12,33055,FL,CAROL CITY,80.27729100,25.94407600,40586,.0031370000
12,33056,FL,CAROL CITY,80.24805900,25.94690600,31968,.0024710000
12,33060,FL,POMPANO BEACH,80.12346000,26.23152900,32292,.0024960000
12,33062,FL,POMPANO BEACH,80.09413300,26.23431400,20836,.0016100000
12,33063,FL,MARGATE,80.21148300,26.24922100,37607,.0029070000
12,33064,FL,LIGHTHOUSE POINT,80.11243900,26.27869800,50084,.0038710000
12,33065,FL,CORAL SPRINGS,80.25557800,26.27140300,43659,.0033740000
12,33066,FL,MARGATE,80.17787800,26.25423700,16494,.0012750000
12,33067,FL,NORTH CORAL SPRI,80.22188000,26.30513400,7227,.0005590000
12,33068,FL,POMPANO BEACH,80.22054000,26.21602100,41835,.0032340000
12,33069,FL,POMPANO BEACH,80.16348600,26.22881700,20158,.0015580000
12,33070,FL,TAVERNIER,80.52181600,25.01078800,6196,.0004790000
12,33071,FL,POMPANO BEACH,80.26008500,26.24351500,28251,.0021840000
12,33073,FL,POMPANO BEACH,80.18096600,26.29969300,7091,.0005480000
12,33076,FL,POMPANO BEACH,80.24808600,26.29190200,4728,.0003650000
12,33122,FL,MIAMI,80.32073300,25.79110000,8,.0000010000
12,33125,FL,MIAMI,80.23411800,25.78254700,47761,.0036920000
12,33126,FL,MIAMI,80.29193200,25.77625500,39861,.0030810000
12,33127,FL,MIAMI,80.20512100,25.81434400,29900,.0023110000
12,33128,FL,MIAMI,80.20885800,25.77561200,6965,.0005380000
12,33129,FL,MIAMI,80.20130100,25.75592600,10225,.0007900000
12,33130,FL,MIAMI,80.20588800,25.76719700,21777,.0016830000
12,33131,FL,MIAMI,80.18950600,25.76285200,2614,.0002020000
12,33132,FL,MIAMI,80.17999600,25.78671200,5198,.0004020000
12,33133,FL,CORAL GABLES,80.24363900,25.73225100,28672,.0022160000
12,33134,FL,CORAL GABLES,80.26957600,25.75558200,33492,.0025890000
12,33135,FL,MIAMI,80.23174600,25.76639100,35425,.0027380000
12,33136,FL,MIAMI,80.20423200,25.78638500,14040,.0010850000
12,33137,FL,MIAMI,80.18966300,25.81564800,19862,.0015350000
12,33138,FL,MIAMI SHORES,80.18526000,25.85020800,30108,.0023270000
12,33139,FL,CARL FISHER,80.13637800,25.78517900,48971,.0037850000
12,33140,FL,MIAMI,80.12792100,25.81950500,13057,.0010090000
12,33141,FL,NORTH BAY VILLAG,80.13357800,25.85238400,29489,.0022790000
12,33142,FL,MIAMI,80.23202300,25.81296600,52262,.0040390000
12,33143,FL,SOUTH MIAMI,80.30140800,25.70025200,28410,.0021960000
12,33144,FL,MIAMI,80.30963100,25.76256300,22968,.0017750000
12,33145,FL,CORAL GABLES,80.23513400,25.75264800,28170,.0021770000
12,33146,FL,CORAL GABLES,80.27464900,25.72008900,13791,.0010660000
12,33147,FL,MIAMI,80.23655800,25.85067500,49395,.0038180000
12,33149,FL,KEY BISCAYNE,80.16247500,25.69210400,8854,.0006840000
12,33150,FL,MIAMI,80.20696800,25.85121400,28408,.0021960000
12,33154,FL,BAL HARBOUR,80.12705500,25.87909400,17312,.0013380000
12,33155,FL,MIAMI,80.31032000,25.73920000,42864,.0033130000
12,33156,FL,KENDALL,80.30853500,25.66767000,27901,.0021570000
12,33157,FL,PERRINE,80.35247300,25.60438400,57749,.0044640000
12,33158,FL,MIAMI,80.31870300,25.63643300,6037,.0004670000
12,33160,FL,NORTH MIAMI BEAC,80.13514100,25.93608600,26987,.0020860000
12,33161,FL,NORTH MIAMI,80.18203400,25.89380600,44800,.0034630000
12,33162,FL,NORTH MIAMI BEAC,80.17723800,25.92807000,37052,.0028640000
12,33165,FL,OLYMPIA HEIGHTS,80.35908400,25.73535300,56064,.0043330000
12,33166,FL,MIAMI SPRINGS,80.29902000,25.81747300,21066,.0016280000
12,33167,FL,MIAMI,80.22916800,25.88560500,18840,.0014560000
12,33168,FL,MIAMI,80.21010600,25.89023200,21629,.0016720000
12,33169,FL,MIAMI,80.21436000,25.94408300,30294,.0023410000
12,33170,FL,QUAIL HEIGHTS,80.39810000,25.55884700,6842,.0005290000
12,33172,FL,MIAMI,80.35723200,25.77352300,29823,.0023050000
12,33173,FL,MIAMI,80.36182400,25.69924200,33787,.0026110000
12,33174,FL,MIAMI,80.36112800,25.76277900,27442,.0021210000
12,33175,FL,OLYMPIA HEIGHTS,80.40822600,25.73367700,41712,.0032240000
12,33176,FL,MIAMI,80.36266700,25.65744900,47435,.0036660000
12,33177,FL,QUAIL HEIGHTS,80.39377000,25.59325500,25043,.0019360000
12,33178,FL,MIAMI,80.35492500,25.81407900,3146,.0002430000
12,33179,FL,MIAMI,80.18138200,25.95709500,31877,.0024640000
12,33180,FL,OJUS,80.13944700,25.96190200,14167,.0010950000
12,33181,FL,NORTH MIAMI BEAC,80.16032900,25.89654800,14089,.0010890000
12,33182,FL,MIAMI,80.41664300,25.78767800,4983,.0003850000
12,33183,FL,MIAMI,80.41296900,25.69997700,32077,.0024790000
12,33184,FL,MIAMI,80.40299700,25.75738200,19617,.0015160000
12,33185,FL,OLYMPIA HEIGHTS,80.43736600,25.71808200,3606,.0002790000
12,33186,FL,MIAMI,80.40850100,25.66943700,43611,.0033710000
12,33187,FL,QUAIL HEIGHTS,80.47137000,25.59711200,6882,.0005320000
12,33189,FL,QUAIL HEIGHTS,80.35085100,25.57431000,15680,.0012120000
12,33190,FL,QUAIL HEIGHTS,80.35381000,25.56093500,2807,.0002170000
12,33193,FL,MIAMI,80.44008700,25.69636500,17432,.0013470000
12,33196,FL,MIAMI,80.44103100,25.66150200,14612,.0011290000
12,33301,FL,FORT LAUDERDALE,80.12877800,26.12156100,12040,.0009310000
12,33304,FL,OAKLAND PARK,80.12528300,26.13790800,18976,.0014670000
12,33305,FL,OAKLAND PARK,80.12776800,26.15311500,11018,.0008520000
12,33306,FL,OAKLAND PARK,80.11257200,26.16509100,3424,.0002650000
12,33308,FL,OAKLAND PARK,80.10767400,26.18788300,28624,.0022120000
12,33309,FL,FORT LAUDERDALE,80.17462400,26.18169800,28226,.0021820000
12,33311,FL,FORT LAUDERDALE,80.17278600,26.14210400,65378,.0050530000
12,33312,FL,FORT LAUDERDALE,80.18103800,26.09681900,44230,.0034190000
12,33313,FL,CITY OF SUNRISE,80.22314200,26.15114500,46804,.0036180000
12,33314,FL,DAVIE,80.22503400,26.06819900,19621,.0015170000
12,33315,FL,FORT LAUDERDALE,80.15408000,26.09888500,12849,.0009930000
12,33316,FL,FORT LAUDERDALE,80.12595100,26.10419300,11206,.0008660000
12,33317,FL,PLANTATION,80.22427200,26.11353600,31518,.0024360000
12,33319,FL,TAMARAC,80.22541300,26.18115300,36178,.0027960000
12,33321,FL,TAMARAC,80.26435600,26.21207200,29504,.0022800000
12,33322,FL,SUNRISE,80.27195400,26.15192300,37348,.0028870000
12,33323,FL,SUNRISE,80.30758300,26.16464100,10658,.0008240000
12,33324,FL,PLANTATION,80.27101900,26.11363900,29427,.0022740000
12,33325,FL,DAVIE,80.32195200,26.10862000,19539,.0015100000
12,33326,FL,DAVIE,80.36994100,26.11433800,8393,.0006490000
12,33327,FL,FORT LAUDERDALE,80.40645000,26.09729100,4605,.0003560000
12,33328,FL,DAVIE,80.27202200,26.06070800,17233,.0013320000
12,33330,FL,DAVIE,80.31290700,26.05547900,9371,.0007240000
12,33331,FL,DAVIE,80.36453300,26.04436600,6928,.0005350000
12,33332,FL,DAVIE,80.41299000,26.05443600,1511,.0001170000
12,33334,FL,OAKLAND PARK,80.13551100,26.18151400,29072,.0022470000
12,33351,FL,TAMARAC,80.27337600,26.17714800,26228,.0020270000
12,33388,FL,FORT LAUDERDALE,80.25058700,26.11758600,435,.0000340000
12,33401,FL,WEST PALM BEACH,80.06587400,26.71395600,19833,.0015330000
12,33403,FL,LAKE PARK,80.07307800,26.80318700,8743,.0006760000
12,33404,FL,RIVIERA BEACH,80.06852000,26.78134300,27997,.0021640000
12,33405,FL,WEST PALM BEACH,80.05823400,26.66996800,18164,.0014040000
12,33406,FL,GLEN RIDGE,80.09302600,26.65558200,23595,.0018240000
12,33407,FL,WEST PALM BEACH,80.07249200,26.74915400,25017,.0019340000
12,33408,FL,NORTH PALM BEACH,80.06033400,26.82885400,17968,.0013890000
12,33409,FL,HAVERHILL,80.09634700,26.71321800,16142,.0012480000
12,33410,FL,PALM BEACH GARDE,80.08730400,26.84437300,23249,.0017970000
12,33411,FL,ROYAL PALM BEACH,80.20989800,26.70053900,21027,.0016250000
12,33412,FL,WEST PALM BEACH,80.24820300,26.80552600,312,.0000240000
12,33413,FL,WEST PALM BEACH,80.14047400,26.67616000,4864,.0003760000
12,33414,FL,WEST PALM BEACH,80.25299000,26.66270700,22046,.0017040000
12,33415,FL,HAVERHILL,80.12796600,26.65572200,35663,.0027560000
12,33417,FL,HAVERHILL,80.12476400,26.71300600,25892,.0020010000
12,33418,FL,PALM BEACH GARDE,80.13253300,26.83897700,15974,.0012350000
12,33426,FL,BOYNTON BEACH,80.08342700,26.51747000,9390,.0007260000
12,33428,FL,BOCA RATON,80.21094200,26.34460500,24103,.0018630000
12,33430,FL,BELLE GLADE,80.67239200,26.68428900,22652,.0017510000
12,33431,FL,BOCA RATON,80.09748800,26.37992900,13075,.0010110000
12,33432,FL,BOCA RATON,80.08442100,26.34619000,17141,.0013250000
12,33433,FL,BOCA RATON,80.15639900,26.34640900,35495,.0027430000
12,33434,FL,BOCA RATON,80.17485800,26.38390900,19075,.0014740000
12,33435,FL,BRINY BREEZES,80.06424000,26.52916100,28536,.0022060000
12,33436,FL,VILLAGE OF GOLF,80.10642300,26.52686200,19263,.0014890000
12,33437,FL,BOYNTON BEACH,80.14181200,26.53118700,14809,.0011450000
12,33438,FL,CANAL POINT,80.62993100,26.85927900,1494,.0001150000
12,33440,FL,CLEWISTON,80.94924900,26.71717100,14427,.0011150000
12,33441,FL,DEERFIELD BEACH,80.09917300,26.30955600,24529,.0018960000
12,33442,FL,DEERFIELD BEACH,80.14124200,26.31236500,21532,.0016640000
12,33444,FL,DELRAY BEACH,80.07932100,26.45644500,18450,.0014260000
12,33445,FL,DELRAY BEACH,80.10539700,26.45635900,20740,.0016030000
12,33446,FL,DELRAY BEACH,80.15801600,26.45171700,13016,.0010060000
12,33455,FL,HOBE SOUND,80.15085100,27.08130600,15209,.0011760000
12,33458,FL,JUPITER,80.12009100,26.93393800,23869,.0018450000
12,33460,FL,LAKE WORTH,80.05599600,26.61820700,28653,.0022150000
12,33461,FL,LAKE WORTH,80.09457300,26.62316000,30905,.0023890000
12,33462,FL,LANTANA,80.07726400,26.57676600,30704,.0023730000
12,33463,FL,GREENACRES,80.13050300,26.60960900,28841,.0022290000
12,33467,FL,LAKE WORTH,80.16829900,26.61036600,21547,.0016650000
12,33469,FL,TEQUESTA,80.10016100,26.96606600,11781,.0009110000
12,33470,FL,LOXAHATCHEE,80.27600700,26.73829500,14094,.0010890000
12,33471,FL,MOORE HAVEN,81.21877600,26.83274900,4724,.0003650000
12,33476,FL,PAHOKEE,80.66289700,26.81419900,8354,.0006460000
12,33477,FL,JUPITER,80.07703400,26.92170100,7748,.0005990000
12,33478,FL,JUPITER,80.21438800,26.92124200,10534,.0008140000
12,33480,FL,PALM BEACH,80.03882500,26.72065000,6588,.0005090000
12,33483,FL,DELRAY BEACH,80.06563700,26.45457000,10326,.0007980000
12,33484,FL,DELRAY BEACH,80.13459000,26.45427200,19141,.0014790000
12,33486,FL,BOCA RATON,80.11041800,26.34809900,19601,.0015150000
12,33487,FL,HIGHLAND BEACH,80.08907200,26.40914200,14606,.0011290000
12,33493,FL,SOUTH BAY,80.73121400,26.67012600,3723,.0002880000
12,33496,FL,BOCA RATON,80.18128700,26.40297500,7116,.0005500000
12,33498,FL,BOCA RATON,80.21608700,26.39069300,5871,.0004540000
12,33510,FL,BRANDON,82.29655400,27.95511200,20184,.0015600000
12,33511,FL,BRANDON,82.28811600,27.90564900,29861,.0023080000
12,33513,FL,BUSHNELL,82.15529700,28.66106200,8728,.0006750000
12,33514,FL,CENTER HILL,81.99628900,28.66348400,1202,.0000930000
12,33525,FL,RIDGE MANOR,82.20793600,28.38691200,29328,.0022670000
12,33527,FL,DOVER,82.21384500,27.99197500,13171,.0010180000
12,33534,FL,GIBSONTON,82.36983100,27.84105900,7010,.0005420000
12,33538,FL,LAKE PANASOFFKEE,82.13627900,28.79526100,3617,.0002800000
12,33540,FL,ZEPHYRHILLS,82.16834700,28.24096000,15608,.0012060000
12,33541,FL,ZEPHYRHILLS,82.20566000,28.23106300,17575,.0013580000
12,33543,FL,WESLEY CHAPEL,82.28895600,28.21036500,4073,.0003150000
12,33544,FL,ZEPHYRHILLS,82.34933000,28.26366400,5989,.0004630000
12,33547,FL,LITHIA,82.13567900,27.82934900,6780,.0005240000
12,33549,FL,LUTZ,82.46104500,28.13668800,30905,.0023890000
12,33556,FL,ODESSA,82.59050600,28.14207200,7046,.0005450000
12,33565,FL,PLANT CITY,82.15755400,28.06985500,13299,.0010280000
12,33566,FL,PLANT CITY,82.11381600,28.00944800,19533,.0015100000
12,33567,FL,PLANT CITY,82.14626800,27.97616700,18937,.0014640000
12,33569,FL,RIVERVIEW,82.31247300,27.84495200,21930,.0016950000
12,33570,FL,RUSKIN,82.43550100,27.70150100,14654,.0011330000
12,33572,FL,APOLLO BEACH,82.41019900,27.77155300,6074,.0004690000
12,33573,FL,SUN CITY CENTER,82.35383200,27.71471100,9070,.0007010000
12,33576,FL,SAN ANTONIO,82.28823700,28.33713900,1396,.0001080000
12,33584,FL,SEFFNER,82.28629600,27.99219900,20956,.0016200000
12,33592,FL,THONOTOSASSA,82.30821200,28.06174700,9009,.0006960000
12,33594,FL,VALRICO,82.24655700,27.91243500,27594,.0021330000
12,33597,FL,RIDGE MANOR ESTA,82.09297500,28.57749200,5880,.0004540000
12,33598,FL,WIMAUMA,82.31513600,27.70149700,7538,.0005830000
12,33602,FL,TAMPA,82.45972000,27.96138100,8473,.0006550000
12,33603,FL,TAMPA,82.46299700,27.98453400,19614,.0015160000
12,33604,FL,TAMPA,82.45784800,28.01731200,34243,.0026470000
12,33605,FL,TAMPA,82.43336800,27.96707800,19813,.0015310000
12,33606,FL,TAMPA,82.46703500,27.93382800,14191,.0010970000
12,33607,FL,TAMPA,82.48953500,27.96253800,22386,.0017300000
12,33608,FL,TAMPA,82.50709700,27.86591600,3578,.0002770000
12,33609,FL,TAMPA,82.50572000,27.94245600,15797,.0012210000
12,33610,FL,TAMPA,82.40458400,27.99512500,34244,.0026470000
12,33611,FL,TAMPA,82.50671400,27.89142200,30070,.0023240000
12,33612,FL,TAMPA,82.45001800,28.05018700,36784,.0028430000
12,33613,FL,TAMPA,82.44551900,28.07718400,24849,.0019210000
12,33614,FL,TAMPA,82.50339300,28.00914000,39021,.0030160000
12,33615,FL,TAMPA,82.58049500,28.00805700,36532,.0028240000
12,33616,FL,TAMPA,82.52029000,27.87418000,11318,.0008750000
12,33617,FL,TAMPA,82.39487600,28.03835800,38114,.0029460000
12,33618,FL,CARROLLWOOD,82.49329100,28.07587500,20229,.0015640000
12,33619,FL,TAMPA,82.37555800,27.93824000,27185,.0021010000
12,33620,FL,TAMPA,82.40918800,28.06946500,3757,.0002900000
12,33624,FL,CARROLLWOOD,82.52494400,28.07719400,39616,.0030620000
12,33625,FL,TAMPA,82.55898700,28.07255100,14778,.0011420000
12,33626,FL,TAMPA,82.61637800,28.05093200,2213,.0001710000
12,33629,FL,TAMPA,82.50789700,27.92102000,21545,.0016650000
12,33634,FL,TAMPA,82.55600600,28.00678300,18712,.0014460000
12,33635,FL,TAMPA,82.60482200,28.03013000,6241,.0004820000
12,33637,FL,TAMPA,82.36587600,28.03377000,9673,.0007480000
12,33647,FL,TAMPA,82.36775100,28.11469800,5866,.0004530000
12,33701,FL,SAINT PETERSBURG,82.63860900,27.77231800,15737,.0012160000
12,33702,FL,SAINT PETERSBURG,82.64479500,27.84271200,28888,.0022330000
12,33703,FL,SAINT PETERSBURG,82.62639300,27.81695700,23348,.0018050000
12,33704,FL,SAINT PETERSBURG,82.63728900,27.79543500,17112,.0013230000
12,33705,FL,SAINT PETERSBURG,82.64349000,27.73911300,28261,.0021840000
12,33706,FL,SAINT PETERSBURG,82.75164600,27.74560600,18974,.0014670000
12,33707,FL,SAINT PETERSBURG,82.72079100,27.75487000,23630,.0018260000
12,33708,FL,MADEIRA BEACH,82.80077900,27.81652900,18018,.0013930000
12,33709,FL,KENNETH CITY,82.72984500,27.81742700,26024,.0020110000
12,33710,FL,SAINT PETERSBURG,82.72428500,27.78979800,32402,.0025040000
12,33711,FL,SAINT PETERSBURG,82.68970800,27.74649000,18084,.0013980000
12,33712,FL,SAINT PETERSBURG,82.66629800,27.73533600,27715,.0021420000
12,33713,FL,SAINT PETERSBURG,82.67793900,27.78901500,29160,.0022540000
12,33714,FL,SAINT PETERSBURG,82.67761200,27.81762100,18227,.0014090000
12,33715,FL,TIERRA VERDE,82.71564600,27.69479200,3877,.0003000000
12,33716,FL,SAINT PETERSBURG,82.64003900,27.87376400,9328,.0007210000
12,33801,FL,LAKELAND,81.93915300,28.03813400,45005,.0034790000
12,33803,FL,LAKELAND,81.95228300,28.01404500,23761,.0018370000
12,33805,FL,LAKELAND,81.96091000,28.07200600,19676,.0015210000
12,33809,FL,LAKELAND,81.98421900,28.12335600,39958,.0030880000
12,33811,FL,SOUTHSIDE,82.00723600,27.96628400,11456,.0008850000
12,33813,FL,SOUTHSIDE,81.93318700,27.96953400,28497,.0022030000
12,33821,FL,ARCADIA,81.86575500,27.18996000,23865,.0018450000
12,33823,FL,AUBURNDALE,81.81223400,28.07244300,24489,.0018930000
12,33825,FL,AVON PARK,81.50148600,27.60008500,16945,.0013100000
12,33827,FL,BABSON PARK,81.53422100,27.83169800,1901,.0001470000
12,33830,FL,BARTOW,81.81268400,27.89566400,25968,.0020070000
12,33834,FL,DUETTE,81.84505800,27.62773800,3700,.0002860000
12,33837,FL,DAVENPORT,81.60791200,28.19626500,8268,.0006390000
12,33838,FL,DUNDEE,81.62120700,28.01941200,2335,.0001800000
12,33839,FL,EAGLE LAKE,81.75635700,27.97866100,1456,.0001130000
12,33841,FL,FORT MEADE,81.78234600,27.74635600,8169,.0006310000
12,33843,FL,FROSTPROOF,81.51477800,27.72105800,8747,.0006760000
12,33844,FL,GRENELEFE,81.61471200,28.09507300,23835,.0018420000
12,33849,FL,KATHLEEN,82.04349900,28.20522400,1096,.0000850000
12,33850,FL,LAKE ALFRED,81.72713800,28.08948300,3916,.0003030000
12,33852,FL,LAKE PLACID,81.36491800,27.29447400,13767,.0010640000
12,33853,FL,LAKE WALES,81.54880500,27.90373400,32570,.0025170000
12,33857,FL,LORIDA,81.19653300,27.41495200,1186,.0000920000
12,33860,FL,MULBERRY,82.00148900,27.90202000,13338,.0010310000
12,33865,FL,ONA,81.92805000,27.41265700,885,.0000680000
12,33868,FL,POLK CITY,81.80828200,28.19867000,7604,.0005880000
12,33870,FL,SEBRING,81.43571200,27.49239100,19922,.0015400000
12,33872,FL,SEBRING,81.48724200,27.47028900,15390,.0011900000
12,33873,FL,WAUCHULA,81.80738800,27.55174200,11513,.0008900000
12,33880,FL,ELOISE,81.75150700,27.99929600,30803,.0023810000
12,33881,FL,WINTER HAVEN,81.73248500,28.04521900,25957,.0020060000
12,33884,FL,CYPRESS GARDENS,81.67890500,27.99490100,14771,.0011420000
12,33890,FL,ZOLFO SPRINGS,81.74232800,27.48004200,3515,.0002720000
12,33901,FL,FORT MYERS,81.87250000,26.62040300,22150,.0017120000
12,33903,FL,FORT MYERS,81.90963200,26.67813800,20015,.0015470000
12,33904,FL,CAPE CORAL CENTR,81.95224300,26.57746000,29483,.0022790000
12,33905,FL,TICE,81.78534100,26.67647200,25029,.0019350000
12,33907,FL,FORT MYERS,81.87355800,26.56805700,19015,.0014700000
12,33908,FL,FORT MYERS,81.92758900,26.50251800,17050,.0013180000
12,33909,FL,CAPE CORAL CENTR,81.95890900,26.68027600,8622,.0006660000
12,33912,FL,FORT MYERS,81.82455400,26.49722000,20141,.0015570000
12,33913,FL,FORT MYERS,81.70646900,26.52280800,473,.0000370000
12,33914,FL,CAPE CORAL CENTR,81.99091500,26.56971000,15782,.0012200000
12,33916,FL,FORT MYERS,81.84294600,26.64659500,17673,.0013660000
12,33917,FL,FORT MYERS,81.85944700,26.70794700,24751,.0019130000
12,33919,FL,COLLEGE PARKWAY,81.90058700,26.55415900,22641,.0017500000
12,33920,FL,ALVA,81.63505500,26.71465700,3044,.0002350000
12,33922,FL,BOKEELIA,82.14006400,26.66272600,2979,.0002300000
12,33923,FL,BONITA SPRINGS,81.78996300,26.34803500,19697,.0015220000
12,33924,FL,CAPTIVA,82.26101700,26.75054100,831,.0000640000
12,33927,FL,EL JOBEAN,82.19957000,26.97608000,91,.0000070000
12,33928,FL,ESTERO,81.81024400,26.43505200,1846,.0001430000
12,33931,FL,FORT MYERS BEACH,81.92454300,26.45195200,10612,.0008200000
12,33934,FL,IMMOKALEE,81.44536500,26.40979400,18066,.0013960000
12,33935,FL,LABELLE,81.43402700,26.73209300,11346,.0008770000
12,33936,FL,LEHIGH ACRES,81.61046000,26.61530200,10851,.0008390000
12,33937,FL,MARCO ISLAND,81.72039400,25.93956800,9495,.0007340000
12,33940,FL,NAPLES,81.80219600,26.17139100,20934,.0016180000
12,33942,FL,NAPLES,81.76612500,26.20157800,23719,.0018330000
12,33943,FL,OCHOPEE,81.31122800,25.87998000,1257,.0000970000
12,33946,FL,PLACIDA,82.26163800,26.81930100,126,.0000100000
12,33947,FL,PLACIDA,82.29377800,26.90039000,7811,.0006040000
12,33948,FL,PORT CHARLOTTE,82.14117300,26.98268000,12212,.0009440000
12,33950,FL,PUNTA GORDA,82.05316600,26.91516300,15495,.0011980000
12,33952,FL,PORT CHARLOTTE,82.09637200,26.99047500,27923,.0021580000
12,33953,FL,PORT CHARLOTTE,82.21174300,27.00400800,1982,.0001530000
12,33954,FL,PORT CHARLOTTE,82.11078200,27.02281500,3993,.0003090000
12,33955,FL,PUNTA GORDA,81.95471200,26.82398100,5206,.0004020000
12,33956,FL,SAINT JAMES CITY,82.09159100,26.52901200,3653,.0002820000
12,33957,FL,SANIBEL,82.08682500,26.45140000,5999,.0004640000
12,33960,FL,VENUS,81.35941200,27.13463000,925,.0000710000
12,33961,FL,NAPLES,81.65863500,26.02772100,7121,.0005500000
12,33962,FL,NAPLES,81.74966100,26.11309600,28714,.0022190000
12,33963,FL,NAPLES,81.80809200,26.26349900,14863,.0011490000
12,33964,FL,NAPLES,81.64043600,26.21125300,5869,.0004540000
12,33971,FL,LEHIGH ACRES,81.66582200,26.60225200,11401,.0008810000
12,33980,FL,PORT CHARLOTTE,82.05888600,26.98396900,7753,.0005990000
12,33981,FL,PORT CHARLOTTE,82.23877400,26.93792500,5758,.0004450000
12,33982,FL,PUNTA GORDA,81.95448400,26.96675100,6235,.0004820000
12,33983,FL,PUNTA GORDA,82.01626800,27.00739800,7319,.0005660000
12,33990,FL,CAPE CORAL CENTR,81.94596700,26.63089300,16975,.0013120000
12,33991,FL,CAPE CORAL CENTR,82.00670300,26.62888100,5352,.0004140000
12,33999,FL,NAPLES,81.70927000,26.19161200,21226,.0016410000
12,34202,FL,BRADEN RIVER,82.43148700,27.46521000,6618,.0005120000
12,34203,FL,BRADEN RIVER,82.54040000,27.44487100,22408,.0017320000
12,34205,FL,WESTGATE,82.58473300,27.48089600,31114,.0024050000
12,34207,FL,COLLEGE PLAZA,82.58062700,27.43966300,27775,.0021470000
12,34208,FL,BRADEN RIVER,82.53696100,27.48588100,20668,.0015970000
12,34209,FL,PALMA SOLA,82.62763100,27.48790900,30012,.0023200000
12,34210,FL,BRADENTON,82.63575200,27.45439300,11345,.0008770000
12,34215,FL,CORTEZ,82.70064200,27.47268600,1657,.0001280000
12,34217,FL,BRADENTON BEACH,82.72102700,27.51514900,6554,.0005070000
12,34219,FL,PARRISH,82.39600900,27.55716200,3811,.0002950000
12,34221,FL,PALMETTO,82.56295700,27.54294600,23994,.0018550000
12,34222,FL,ELLENTON,82.50060000,27.53818000,8252,.0006380000
12,34223,FL,ENGLEWOOD,82.35988600,26.96674300,15705,.0012140000
12,34224,FL,GROVE CITY,82.31173100,26.92504000,5110,.0003950000
12,34228,FL,WHITNEY BEACH,82.63840300,27.38669000,5937,.0004590000
12,34229,FL,OSPREY,82.48533900,27.18384000,3612,.0002790000
12,34231,FL,SOUTH TRAIL,82.51379300,27.26757000,32813,.0025360000
12,34232,FL,FOREST LAKES,82.47570900,27.32005600,29847,.0023070000
12,34233,FL,SARASOTA,82.47698000,27.28661400,11476,.0008870000
12,34234,FL,MEADOWS VILLAGE,82.53518200,27.36535500,20243,.0015650000
12,34235,FL,SARASOTA,82.48475900,27.36716200,11275,.0008710000
12,34236,FL,SARASOTA,82.54862400,27.33158800,10942,.0008460000
12,34237,FL,SARASOTA,82.51277800,27.33691500,15902,.0012290000
12,34238,FL,SARASOTA SQUARE,82.48289800,27.24383400,5493,.0004250000
12,34239,FL,SARASOTA,82.51954500,27.31113700,15949,.0012330000
12,34240,FL,SARASOTA,82.38559400,27.32765000,4943,.0003820000
12,34241,FL,SARASOTA,82.41811200,27.28217900,8902,.0006880000
12,34242,FL,CRESCENT BEACH,82.54693200,27.26602500,10594,.0008190000
12,34243,FL,SARASOTA,82.53029900,27.40723500,14096,.0010900000
12,34251,FL,MYAKKA CITY,82.18489700,27.36476400,1636,.0001260000
12,34275,FL,NOKOMIS,82.45177900,27.13839800,13638,.0010540000
12,34285,FL,VENICE,82.44983000,27.09331200,9069,.0007010000
12,34287,FL,NORTH PORT,82.24161600,27.04783900,16491,.0012750000
12,34292,FL,MID VENICE,82.41511200,27.10324500,13901,.0010740000
12,34293,FL,SOUTH VENICE,82.40409600,27.05302200,26720,.0020650000
12,34601,FL,BROOKSVILLE,82.37367400,28.56580500,20190,.0015610000
12,34602,FL,RIDGE MANOR WEST,82.29054500,28.51116700,4940,.0003820000
12,34606,FL,SPRING HILL,82.59808400,28.46551000,18190,.0014060000
12,34607,FL,SPRING HILL,82.62667100,28.50654600,5420,.0004190000
12,34608,FL,SPRING HILL,82.55620600,28.47969600,16755,.0012950000
12,34609,FL,SPRING HILL,82.49989600,28.47761100,19824,.0015320000
12,34610,FL,SHADY HILLS,82.53014800,28.40508400,9958,.0007700000
12,34613,FL,BROOKSVILLE,82.52128600,28.54655800,9899,.0007650000
12,34614,FL,BROOKSVILLE,82.52361300,28.66224400,3687,.0002850000
12,34615,FL,CLEARWATER,82.78080700,27.98624100,30847,.0023840000
12,34616,FL,CLEARWATER,82.78671100,27.94562400,28460,.0022000000
12,34619,FL,CLEARWATER,82.71724800,27.97650300,15886,.0012280000
12,34620,FL,CLEARWATER,82.71588500,27.91398100,15769,.0012190000
12,34621,FL,CLEARWATER,82.72371800,28.02961000,16102,.0012450000
12,34622,FL,AIRPORT,82.67687600,27.89671300,3190,.0002470000
12,34623,FL,CLEARWATER,82.74740500,28.00273400,20280,.0015670000
12,34624,FL,CLEARWATER,82.74348500,27.93595000,27315,.0021110000
12,34625,FL,CLEARWATER,82.74550400,27.97306300,10394,.0008030000
12,34630,FL,CLEARWATER,82.82228100,27.98452600,6231,.0004820000
12,34635,FL,BELLEAIR BEACH,82.84048600,27.91760500,7736,.0005980000
12,34639,FL,LAND O LAKES,82.45472000,28.22584900,11815,.0009130000
12,34640,FL,BELLEAIR BLUFFS,82.80197800,27.91583500,22793,.0017620000
12,34641,FL,LARGO,82.75937000,27.90754700,24087,.0018620000
12,34642,FL,SEMINOLE,82.79689600,27.84457100,24078,.0018610000
12,34643,FL,LARGO,82.76280600,27.88033400,17707,.0013690000
12,34644,FL,LARGO,82.82628700,27.88359700,20162,.0015580000
12,34646,FL,LARGO,82.82697800,27.85290600,11284,.0008720000
12,34647,FL,LARGO,82.75870100,27.85154900,15130,.0011690000
12,34648,FL,LARGO,82.79594600,27.88439100,13347,.0010320000
12,34652,FL,NEW PORT RICHEY,82.73272100,28.23257400,22422,.0017330000
12,34653,FL,NEW PORT RICHEY,82.69860000,28.24439800,26729,.0020660000
12,34654,FL,NEW PORT RICHEY,82.62642300,28.30220100,13750,.0010630000
12,34655,FL,NEW PORT RICHEY,82.68072900,28.21289800,13849,.0010700000
12,34665,FL,PINELLAS PARK,82.71335000,27.84031300,24459,.0018900000
12,34666,FL,PINELLAS PARK,82.70935300,27.86074200,19840,.0015330000
12,34667,FL,HUDSON,82.67566900,28.36476300,26410,.0020410000
12,34668,FL,PORT RICHEY,82.69271400,28.30114800,39471,.0030510000
12,34669,FL,HUDSON,82.62879300,28.35063400,8577,.0006630000
12,34677,FL,OLDSMAR,82.68477800,28.04603500,12858,.0009940000
12,34683,FL,PALM HARBOR,82.75848800,28.06624800,42350,.0032730000
12,34684,FL,LAKE TARPON,82.72657300,28.07396300,21753,.0016810000
12,34685,FL,PALM HARBOR,82.69635700,28.09672500,2278,.0001760000
12,34689,FL,TARPON SPRINGS,82.74302300,28.13846500,26381,.0020390000
12,34690,FL,HOLIDAY,82.72793500,28.19127300,11980,.0009260000
12,34691,FL,HOLIDAY,82.75596500,28.19133600,16548,.0012790000
12,34695,FL,SAFETY HARBOR,82.69665800,28.00960800,16853,.0013030000
12,34698,FL,DUNEDIN,82.77943400,28.02838200,15304,.0011830000
12,34705,FL,ASTATULA,81.71947300,28.70875400,1831,.0001420000
12,34711,FL,CLERMONT,81.75740700,28.55254100,15109,.0011680000
12,34731,FL,FRUITLAND PARK,81.89975500,28.86394900,8513,.0006580000
12,34736,FL,GROVELAND,81.87452600,28.56444500,8692,.0006720000
12,34737,FL,HOWEY IN THE HIL,81.78998300,28.70981800,1370,.0001060000
12,34739,FL,KENANSVILLE,81.05004900,27.87669800,736,.0000570000
12,34741,FL,KISSIMMEE,81.42420800,28.30505600,23576,.0018220000
12,34743,FL,BUENA VENTURA LA,81.35604400,28.32965600,14287,.0011040000
12,34744,FL,KISSIMMEE,81.36812200,28.30780700,21101,.0016310000
12,34746,FL,KISSIMMEE,81.46747800,28.26796000,12922,.0009990000
12,34748,FL,LEESBURG,81.88577200,28.80796500,21309,.0016470000
12,34756,FL,MONTVERDE,81.67936800,28.59715300,2216,.0001710000
12,34758,FL,KISSIMMEE,81.48701400,28.19843600,6306,.0004870000
12,34759,FL,POINCIANA,81.45898400,28.12478600,2430,.0001880000
12,34761,FL,OCOEE,81.53261800,28.58368500,14171,.0010950000
12,34762,FL,OKAHUMPKA,81.88394900,28.73725700,1779,.0001380000
12,34769,FL,SAINT CLOUD,81.28762600,28.24799200,15024,.0011610000
12,34771,FL,SAINT CLOUD,81.20031100,28.27301000,5870,.0004540000
12,34772,FL,SAINT CLOUD,81.26449300,28.19051800,6041,.0004670000
12,34773,FL,SAINT CLOUD,81.01755200,28.12929500,1000,.0000770000
12,34785,FL,WILDWOOD,82.03473000,28.84535300,10604,.0008200000
12,34786,FL,WINDERMERE,81.53541100,28.50061000,5725,.0004420000
12,34787,FL,WINTER GARDEN,81.59112700,28.54232100,18939,.0014640000
12,34788,FL,HAINES CREEK,81.78115900,28.85744000,12883,.0009960000
12,34797,FL,YALAHA,81.82632400,28.74444300,1061,.0000820000
12,34945,FL,FORT PIERCE,80.44396300,27.43823300,3711,.0002870000
12,34946,FL,FORT PIERCE,80.35996000,27.50077000,10873,.0008400000
12,34947,FL,FORT PIERCE,80.35918500,27.44928100,10882,.0008410000
12,34949,FL,FORT PIERCE,80.26146800,27.38959400,8853,.0006840000
12,34950,FL,FORT PIERCE,80.33850000,27.44856700,19708,.0015230000
12,34951,FL,FORT PIERCE,80.40519500,27.53909700,6821,.0005270000
12,34952,FL,PORT SAINT LUCIE,80.29797100,27.28889500,23437,.0018110000
12,34953,FL,PORT SAINT LUCIE,80.37932300,27.26250600,11796,.0009120000
12,34956,FL,INDIANTOWN,80.48027700,27.06146100,7823,.0006050000
12,34957,FL,JENSEN BEACH,80.22765600,27.23556800,13656,.0010560000
12,34972,FL,BASINGER,80.84785300,27.31153200,14955,.0011560000
12,34974,FL,OKEECHOBEE,80.84103000,27.20022400,18122,.0014010000
